patent_id,date,filing_date,country,longitude,latitude,cpc,type,title,assignee,person,first,second,inventors,loc,cites,birth,death
4148070,1979-04-03,1977-01-31,GB,-0.127647,51.50732,G06T1/20,utility,Video processing system,"MICRO CO., LTD.",fl:ri_ln:taylor-32,Richard J.,Taylor,[],b38b1284-16c7-11ed-9b5f-1234bde3cd05,"3810174,3904817,4002827,3996419,4057836,3988533,3988533",1977-01-31,0-0-0
4322716,1982-03-30,1979-09-10,US,-83.731224,42.268158,"G06T1/20,G06V10/36",utility,Method and apparatus for pattern recognition and detection,Environmental Research Institute,fl:st_ln:sternberg-1,Stanley R.,Sternberg,[],4c7a9f37-16c8-11ed-9b5f-1234bde3cd05,"3878530,3723970,3636513,3289164,3889771,3889234,3196398,3959771,3106699,3761876,3624604,3214574,3748644,4003024,4110736,3573789,4167728,3339179,4224600,4124870,3287703,4060713,3706071,3631405,3106698,4174514,3638188,3846754,3219980,3968475,4174514,3638188,3846754,3219980,3968475",1979-09-10,0-0-0
4363104,1982-12-07,1980-09-22,US,-118.837601,34.170559,"G06F15/8015,G06T2207/20192,G06T2207/10016,G06T7/12,G06T1/20",utility,Imaging system having multiple image copying and hierarchical busing,Hughes Aircraft Company,fl:th_ln:nussmeier-1,Thomas A.,Nussmeier,[],c1073b1f-16c7-11ed-9b5f-1234bde3cd05,"3983320,4127873,3996421,4213150,4229797",1980-09-22,0-0-0
4430749,1984-02-07,1981-06-30,US,-88.083405,42.03336,"G06T1/20,G06T5/50,H04N5/3205",utility,Medical imaging apparatus and method for furnishing difference images,"Siemens Gammasonics, Inc.",fl:ma_ln:schardt-1,Mark A.,Schardt,[],e5e40109-16c7-11ed-9b5f-1234bde3cd05,"4217641,4355331,4335427,4002910,4323973,3894181",1981-06-30,0-0-0
4435792,1984-03-06,1982-06-30,US,-122.170242,37.427471,"G06T1/20,G09G5/393",utility,Raster memory manipulation apparatus,Sun Microsystems Inc.,fl:an_ln:bechtolsheim-1,Andreas,Bechtolsheim,[],c1927ee7-16c7-11ed-9b5f-1234bde3cd05,,1982-06-30,0-0-0
4459677,1984-07-10,1982-03-08,US,-122.159851,37.444332,"G09G5/022,G06F3/153,G09G5/39,G06F3/0489,G06T1/20",utility,VIQ Computer graphics system,Ampex Corporation,fl:th_ln:porter-5,Thomas K.,Porter,[],a26e22db-16c8-11ed-9b5f-1234bde3cd05,"4200869,3789367,4117473,4002827,4189743,3811113,4209832,4225861,4158838,4121283,4232311,4148070,3573855,4017680,3976982,4093996,4204208,3697678,4197590,4129859,4303986,4124871,4026555,3849594,4134131,4189744,4163249,4338599,4120028,4156914,4200867,4156914,4200867",1982-03-08,0-0-0
4510568,1985-04-09,1983-01-25,JP,139.414688,35.661068,"G06F9/445,G06F3/04883,G06T1/20",utility,Graphic processing method,FANUC CORPORATION,fl:ha_ln:kishi-2,Hajimu,Kishi,[],932dc780-16c8-11ed-9b5f-1234bde3cd05,"3887903,4451895,3906197",1983-01-25,0-0-0
4524455,1985-06-18,1981-06-01,US,-83.731224,42.268158,"G06F15/8015,G06T1/20",utility,Pipeline processor,Environmental Research Inst. of Michigan,fl:wl_ln:holsztynski-1,Wlodzimierz,Holsztynski,[],4c7a9f37-16c8-11ed-9b5f-1234bde3cd05,"4174514,3287702,3296426,4215401,4301443,3544973,3312943,3473160,3308436,3287703",1981-06-01,0-0-0
4545068,1985-10-01,1983-02-03,JP,139.63678,35.444996,G06T1/20,utility,Image processing system,Tokyo Shibaura Denki Kabushiki Kaisha,fl:mi_ln:tabata-4,Mitsuo,Tabata,[],1d2251c8-16c8-11ed-9b5f-1234bde3cd05,"4442495,3905018,4395699,4120049",1983-02-03,0-0-0
4546433,1985-10-08,1982-06-29,GB,0.475736,51.575462,G06T1/20,utility,Arrangement for processing data in a two-dimensional array,GEC Avionics Limited,fl:ch_ln:tucker-2,Christopher J.,Tucker,[],42a65053-16c8-11ed-9b5f-1234bde3cd05,"4403287,3339179,3308436,4141066,4380046,3106698",1982-06-29,0-0-0
4574394,1986-03-04,1984-04-10,US,-83.731224,42.268158,"G06T1/20,G06F15/8015",utility,Pipeline processor,Environmental Research Institute,fl:wl_ln:holsztynski-1,Wlodzimierz,Holsztynski,[],4c7a9f37-16c8-11ed-9b5f-1234bde3cd05,"4174514,4442543",1984-04-10,0-0-0
4601055,1986-07-15,1984-04-10,US,-77.192917,39.139915,"G06V10/36,G06T1/20",utility,Image processor,"Government of the United States of America, as represented by the Secretary of Commerce",fl:er_ln:kent-5,Ernest W.,Kent,[],03365cfe-16c8-11ed-9b5f-1234bde3cd05,"4167728,4475161,4464789,4330833,4322716,4541114,4369430,4541114,4369430",1984-04-10,0-0-0
4604743,1986-08-05,1984-11-21,US,-72.900665,41.498989,"G06T1/20,G06F13/37,G06F13/4217",utility,Bus structure for an image processor,North American Philips Corporation,fl:ra_ln:alexandru-1,Radu,Alexandru,[],08046d09-16c8-11ed-9b5f-1234bde3cd05,"4354263,4535448,4535448",1984-11-21,0-0-0
4641197,1987-02-03,1984-06-26,JP,139.63678,35.444996,"H04N1/00602,H04N1/3871,H04N1/32464,G06T1/20,G06T1/0007,H04N1/00572,H04N1/00575,H04N1/3248,H04N2201/3288,H04N1/3873",utility,Image processing method or apparatus,Canon Kabushiki Kaisha,fl:ke_ln:miyagi-6,Ken,Miyagi,[],1d2251c8-16c8-11ed-9b5f-1234bde3cd05,"4264808,4240119,4149145,3597071,4231069,3976982,4196450,4213694,4214276,4326222,4326222",1984-06-26,0-0-0
4653110,1987-03-24,1985-10-30,JP,139.759445,35.682838,"G06T1/20,G06F15/17",utility,Image processor system,KABUSHIKI KAISHA TOSHIBA,fl:yu_ln:urushibata-2,Yukio,Urushibata,[],42f90495-16c8-11ed-9b5f-1234bde3cd05,"4550437,4434502,4158834,4429414",1985-10-30,0-0-0
4665551,1987-05-12,1983-12-08,US,-83.731224,42.268158,G06T1/20,utility,Apparatus and method for implementing transformations in digital image processing,Machine Vision International Corporation,fl:st_ln:sternberg-1,Stanley R.,Sternberg,[],4c7a9f37-16c8-11ed-9b5f-1234bde3cd05,"3899771,3846754,4301443,4290049,3339179,4174514,4369430,4445137,3573789,4395700,4395697,3214574,4395698,3805035,4322716,4395699,4167728,3106699",1983-12-08,0-0-0
4665556,1987-05-12,1984-02-09,JP,140.650467,36.599121,G06T1/20,utility,Image signal processor,"HITACHI, LTD.",fl:ta_ln:fukushima-16,Tadashi,Fukushima,[],b6d74843-16c7-11ed-9b5f-1234bde3cd05,"4275380,4224600,4300122,4215901,4215901",1984-02-09,0-0-0
4685144,1987-08-04,1984-10-29,US,-83.731224,42.268158,"G06T5/20,G06F15/8015,G06T1/20",utility,Image processing system with transformation detection,Environmental Research Institute,fl:da_ln:mccubbrey-1,David L.,McCubbrey,[],4c7a9f37-16c8-11ed-9b5f-1234bde3cd05,4395699,1984-10-29,0-0-0
4688095,1987-08-18,1986-02-07,US,-71.140877,42.657166,G06T1/20,utility,Programmable image-transformation system,IMAGE TECHNOLOGY INC.,fl:mi_ln:beg-5,Mirza R.,Beg,[],0e7bcf95-16c8-11ed-9b5f-1234bde3cd05,"4285004,4450482,4445138,4396938,4365304,4212072,4394688,4375671,4148070,4435792,3800078",1986-02-07,0-0-0
4689823,1987-08-25,1984-01-04,US,-71.152275,42.479259,"G06T1/60,G06T1/20",utility,Digital image frame processor,"I-TEK, Inc.",fl:da_ln:wojcik-1,David R.,Wojcik,[],0c4c6771-16c8-11ed-9b5f-1234bde3cd05,"4484346,4484349",1984-01-04,0-0-0
4692944,1987-09-08,1984-12-28,JP,139.150238,35.263676,"G06T1/20,G06V10/751",utility,Image data processing system,"HITACHI, LTD.",fl:hi_ln:masuzaki-2,Hidefumi,Masuzaki,[],22026e5b-16c8-11ed-9b5f-1234bde3cd05,"4545068,4484346,4363104,4434502,3973243",1984-12-28,0-0-0
4694398,1987-09-15,1984-09-25,US,-71.195602,42.504822,"G01T1/1647,G06T1/20,Y10S378/901",utility,Digital image frame processor,"Baird, Inc.",fl:fr_ln:croteau-1,Francis R.,Croteau,[],0a99a115-16c8-11ed-9b5f-1234bde3cd05,"4566074,4497024,4491932,4443862,4504909,4520442",1984-09-25,0-0-0
4707859,1987-11-17,1985-12-16,GB,-1.948308,52.094017,G06T1/20,utility,Apparatus for high speed analysis of two-dimensional images,Hughes Aircraft Company,fl:gr_ln:nudd-1,Graham R.,Nudd,[],2229541d-16c8-11ed-9b5f-1234bde3cd05,"3484747,3964021,4547676,3400368,4318083,4153946,3701095",1985-12-16,0-0-0
4718091,1988-01-05,1985-01-17,JP,140.650467,36.599121,G06T1/20,utility,Multifunctional image processor,"HITACHI, LTD.",fl:yo_ln:kobayashi-45,Yoshiki,Kobayashi,[],b6d74843-16c7-11ed-9b5f-1234bde3cd05,"4322716,4266249,4464788,4550437,4319267,4319267",1985-01-17,0-0-0
4733305,1988-03-22,1985-03-15,JP,140.650467,36.599121,"H04N1/60,G06T1/20,H04N1/40",utility,Conversational picture processing system,"HITACHI, LTD.",fl:sh_ln:miura-14,Shuuichi,Miura,[],b6d74843-16c7-11ed-9b5f-1234bde3cd05,"4514767,4205341,4400738,4604653,4491961,4587633,4551768,4551768",1985-03-15,0-0-0
4734770,1988-03-29,1987-02-11,JP,139.236206,35.565594,"G06T1/20,G06T2207/20192,G06T5/002,G06T5/20",utility,Image data processing method and device therefor,"HITACHI, LTD.",fl:ik_ln:matsuba-2,Ikuo,Matsuba,[],2210db2b-16c8-11ed-9b5f-1234bde3cd05,"4641352,4692892,4539703,4601055,4408343,4672444",1987-02-11,0-0-0
4736447,1988-04-05,1985-08-26,US,-75.06295,42.453495,"G06K9/00,G06T1/20",utility,Video computer,,fl:ge_ln:korsinsky-1,Gersh,Korsinsky,[],72bdd31a-16c8-11ed-9b5f-1234bde3cd05,"4430726,4215343,4136395,4041467,4000510,4295121",1985-08-26,0-0-0
4742552,1988-05-03,1983-09-27,US,-122.230171,47.307537,"G06T1/20,G06F15/803",utility,Vector image processing system,The Boeing Company,fl:ba_ln:andrews-6,Barry A.,Andrews,[],8166420b-16c8-11ed-9b5f-1234bde3cd05,"4442543,4484349,4524455,4363104,4215401",1983-09-27,0-0-0
4749990,1988-06-07,1985-11-22,US,-71.292557,42.296486,"G06T1/20,G09G5/393",utility,Image display system and method,"Computer Design and Applications, Inc.",fl:da_ln:birkner-1,David A.,Birkner,[],086f2184-16c8-11ed-9b5f-1234bde3cd05,"4564915,4580242,4550315,4467461,3653001,4558438",1985-11-22,0-0-0
4760607,1988-07-26,1986-07-31,US,-83.731224,42.268158,G06T1/20,utility,Apparatus and method for implementing transformations in grayscale image processing,Machine Vision International Corporation,fl:st_ln:sternberg-1,Stanley R.,Sternberg,[],4c7a9f37-16c8-11ed-9b5f-1234bde3cd05,"3761876,4242662,4414685,4395697,4345312,4464788,4665554,4301443,3805035,3959771,4167728,4484346,4395700,4641356,4395699,4442543,4665551,4288779,4398176,4122496,4635292,4541114,4290049,4322716,4395698,4541114,4290049,4322716,4395698",1986-07-31,0-0-0
4774578,1988-09-27,1986-07-01,DE,8.595198,49.023464,G06T1/20,utility,Circuit arrangement for processing picture data,SIEMENS AKTIENGESELLSCHAFT,4wvzr7qo5khtalu35euj7jwun,Horst,Kick,[],6f0f58e7-16c8-11ed-9b5f-1234bde3cd05,"4689823,3976982",1986-07-01,0-0-0
4779210,1988-10-18,1985-04-26,JP,140.650467,36.599121,"G06T1/20,G06T1/60,G09G5/36,G06T17/00,G06T11/203",utility,Graphic processing apparatus,"Hitachi Engineering Co., Ltd.",fl:ko_ln:katsura-2,Koyo,Katsura,[],b6d74843-16c7-11ed-9b5f-1234bde3cd05,"4233601,4510568,4149264,4491836,4396988,4177514,4496944,4492956",1985-04-26,0-0-0
4782397,1988-11-01,1987-05-29,JP,139.63678,35.444996,G06T1/20,utility,Image data processing apparatus with editing function,KABUSHIKI KAISHA TOSHIBA,fl:ka_ln:kimoto-8,Katsumi,Kimoto,[],1d2251c8-16c8-11ed-9b5f-1234bde3cd05,"4656603,4672459,4653020,4243972,4706205,4243972,4706205",1987-05-29,0-0-0
4786820,1988-11-22,1988-01-20,JP,139.702789,35.530529,"H04N1/40,H04N1/403,G06T1/20",utility,Apparatus for parallel-processing image data,Canon Kabushiki Kaisha,fl:yo_ln:ogino-13,Yoshitaka,Ogino,[],1c0a3d5a-16c8-11ed-9b5f-1234bde3cd05,"4589034,4513313,4222105,3995107,4584609,4584609",1988-01-20,0-0-0
4790025,1988-12-06,1985-09-26,JP,135.7556,35.021038,G06T1/20,utility,Processing method of image data and system therefor,"DAINIPPON SCREEN MFG. CO., LTD.",fl:to_ln:inoue-24,Toshifumi,Inoue,[],881ecc4c-16c8-11ed-9b5f-1234bde3cd05,"4633506,4618991,4647971,4635293,4468688",1985-09-26,0-0-0
4790026,1988-12-06,1985-12-31,US,-118.247849,34.146938,"G06T1/20,G06F15/8007,G06F15/17343,G06F1/0356",utility,Programmable pipelined image processor,THE UNITED STATES OF AMERICA AS REPRESENTED BY THE ADMINISTRATOR OF THE NATIONAL AERONAUTICS AND SPACE ADMINISTRATION,fl:do_ln:gennery-1,Donald B.,Gennery,[],174cd3ea-16c8-11ed-9b5f-1234bde3cd05,"4369430,4479036,4466064,4498134,4484349,4439840,4484346,4464789",1985-12-31,0-0-0
4803617,1989-02-07,1988-03-03,US,-77.615211,43.15728,"G06F13/18,G06T1/20,G06F13/364",utility,Multi-processor using shared buses,EASTMAN KODAK COMPANY,fl:th_ln:berarducci-1,Thomas N.,Berarducci,[],d929a955-16c7-11ed-9b5f-1234bde3cd05,"4484262,4112502,3800292,4058851,4371928,4400768,4365292,4409656,4481572,4495567,4051551,4384323,4263649,4547845,4237534,3242467,3242467",1988-03-03,0-0-0
4805228,1989-02-14,1987-05-04,US,-76.86692,39.104416,"G06T1/20,G06V10/36",utility,Cellular logic processor,The Johns Hopkins University,fl:ro_ln:jenkins-14,Robert E.,Jenkins,[],fdcb6762-16c7-11ed-9b5f-1234bde3cd05,"4506382,4441207,4228498,4398176,4003024,4437121,4675803,4356550,4356550",1987-05-04,0-0-0
4809346,1989-02-28,1987-02-11,US,-118.644096,34.144665,"G06T1/20,G06V10/457,G06F15/8023",utility,Computer vision architecture for iconic to symbolic transformation,Hughes Aircraft Company,fl:da_ln:shu-4,David B.,Shu,[],c3f6661c-16c7-11ed-9b5f-1234bde3cd05,"4426699,4484349,4665556,4622632,4674125,4601055,4060713,4215401,4550436,4365304,4517659",1987-02-11,0-0-0
4809347,1989-02-28,1986-07-18,US,-118.242767,34.053688,"G06T1/20,G06F15/8023",utility,Computer vision architecture,Hughes Aircraft Company,fl:ja_ln:nash-7,James,Nash,[],15c69712-16c8-11ed-9b5f-1234bde3cd05,"4447886,4556955,4484349,4351025,4601055,4309691,4524428,4215401,4665556,4622632,4653112,4015240,4611347",1986-07-18,0-0-0
4817175,1989-03-28,1987-05-04,US,-122.219048,37.373623,"H04N19/42,G06T5/20,H04N19/61,G06T1/20",utility,Video stream processing system,"Schlumberger Systems & Services, Inc.",fl:ja_ln:tenenbaum-1,Jay M.,Tenenbaum,[],c2e22c7f-16c7-11ed-9b5f-1234bde3cd05,"4335398,4484346,4464788,3829831,4665556,4200861,4040009,4560974,3849762,4541114,4541115,4110737,4513390,4389672,4363104,4119946,4119946",1987-05-04,0-0-0
4817172,1989-03-28,1986-04-21,JP,139.759445,35.682838,G06T1/20,utility,Image processing system,Canon Kabushiki Kaisha,fl:ke_ln:cho-38,Kenjiro,Cho,[],42f90495-16c8-11ed-9b5f-1234bde3cd05,"Re30679,4087788,4630306",1986-04-21,0-0-0
4823281,1989-04-18,1987-12-04,US,-73.79068,41.338142,G06T1/20,utility,Color graphic processor for performing logical operations,IBM CORPORATION,fl:ca_ln:evangelisti-2,Carlo J.,Evangelisti,[],0e4021fa-16c8-11ed-9b5f-1234bde3cd05,"4484187,4564915,4615013,4589089,4595917,4631691,4710764,4642790,4673930,4532503,4459677,4682297,4528636,4631690,4631690",1987-12-04,0-0-0
4829380,1989-05-09,1987-12-09,US,-83.221863,42.47337,G06T1/20,utility,Video processor,General Motors LLC,fl:re_ln:iadipaolo-1,Rene M.,Iadipaolo,[],f7cdbded-16c7-11ed-9b5f-1234bde3cd05,"4663666,4700229,4672463,4639769,4539593,4064484,4323974,4612569,4622546,4625330,4701793,3477064,4340903,3535648,3772465,4613269",1987-12-09,0-0-0
4829454,1989-05-09,1987-04-03,JP,139.414688,35.661068,G06T1/20,utility,Picture processing apparatus,FANUC CORPORATION,fl:mi_ln:kurakake-2,Mitsuo,Kurakake,[],932dc780-16c8-11ed-9b5f-1234bde3cd05,"4479145,4450579,4707647,4700224,4589139,4651341,4400728,4400728",1987-04-03,0-0-0
4829585,1989-05-09,1987-05-04,US,-71.441307,42.309566,G06T1/20,utility,Electronic image processing circuit,Polaroid Corporation,fl:da_ln:pape-1,David D.,Pape,[],05e45d58-16c8-11ed-9b5f-1234bde3cd05,"4589085,4546446,4731864,4550437,4635292,4484349,4644488,4573136,4718091,4086474,4086474",1987-05-04,0-0-0
4845663,1989-07-04,1987-09-03,US,-118.14447,34.14764,G06T1/20,utility,Image processor with free flow pipeline bus,Minnesota Mining and Manufacturing Company,fl:dw_ln:brown-5,Dwight E.,Brown,[],198b2267-16c8-11ed-9b5f-1234bde3cd05,"Re31200,4550437,4545068,4658354,4494192,4594653,4174514,4232366,3815099,3676860,4330833,4574394,4674034,3997896,4484346,4484349,4543628,3866181,4543628,3866181",1987-09-03,0-0-0
4850027,1989-07-18,1988-02-05,US,-73.685684,41.328144,G06T1/20,utility,Configurable parallel pipeline image processing system,International Business Machines Corporation,fl:mi_ln:kimmel-5,Milton J.,Kimmel,[],0d3fb2d9-16c8-11ed-9b5f-1234bde3cd05,"4441207,4398248,3681579,4665556,3553654,3970993,3805035,3419849,4484349,3356837,3603934,4395698,4484346,4395700,4524455,4464788,4174514,4601055,3226569,4467409,3665418,3660646,4395699,4598400,4490848,4395699,4598400,4490848",1988-02-05,0-0-0
4860248,1989-08-22,1988-02-25,US,-73.538742,41.053429,G06T1/20,utility,Pixel slice processor with frame buffers grouped according to pixel bit width,IBM CORPORATION,fl:le_ln:lumelsky-1,Leon,Lumelsky,[],0cd1998f-16c8-11ed-9b5f-1234bde3cd05,"4395700,4507726,4380046,4439762,4368466,4442503",1988-02-25,0-0-0
4860375,1989-08-22,1986-03-10,US,-83.731224,42.268158,G06T1/20,utility,High speed cellular processing system,Environmental Research Inst. of Michigan,fl:da_ln:mccubbrey-1,David L.,McCubbrey,[],4c7a9f37-16c8-11ed-9b5f-1234bde3cd05,"4574394,4667295,3905045,4601055,4550437",1986-03-10,0-0-0
4862150,1989-08-29,1984-12-24,JP,140.650467,36.599121,"G06T1/20,G09G2360/127,G06T11/203,G09G5/393,G09G5/39,G06T17/00,G09G5/399,G09G5/024,G06T1/60,G09G5/36,G09G5/363,G09G5/20,G09G5/395",utility,Graphic pattern processing apparatus,"Hitachi Engineering Co., Ltd.",fl:ko_ln:katsura-2,Koyo,Katsura,[],b6d74843-16c7-11ed-9b5f-1234bde3cd05,"4736200,4201983,4618858,4590465,4630039,4779210,4200867,4454593,4533910,4439760,4484192,4633416,4570236,4496944,4691295,4663735",1984-12-24,0-0-0
4868748,1989-09-19,1987-11-25,US,-87.922493,43.034996,"G06T1/20,G06T17/005,G06T17/00",utility,Rapid processing of three-dimensional graphical objects from tomographic data,General Electric Company,fl:ca_ln:crawford-2,Carl R.,Crawford,[],a5099303-16c8-11ed-9b5f-1234bde3cd05,"4719585,4710876,4751643",1987-11-25,0-0-0
4868781,1989-09-19,1988-08-29,JP,139.63678,35.444996,"G09G2340/10,G06F7/575,G09G5/393,G06T1/60,G06T1/20",utility,Memory circuit for graphic images,"HITACHI, LTD.",fl:ko_ln:kimura-27,Koichi,Kimura,[],1d2251c8-16c8-11ed-9b5f-1234bde3cd05,"4616336,4450442,4559533,4317114,4653020,4550315,4484187,4531120,4639768,4639768",1988-08-29,0-0-0
4882687,1989-11-21,1986-03-31,US,-71.105614,42.375099,"G06T1/20,G09G5/393",utility,Pixel processor,Schlumberger Technology Corporation,fl:do_ln:gordon-18,Dorothy,Gordon,[],099466fc-16c8-11ed-9b5f-1234bde3cd05,"4600846,4520358,4620186,4677573,4667305,4592005,4691295,4484187,4672357,4564915,4653112,4675811,4190892",1986-03-31,0-0-0
4887163,1989-12-12,1989-03-20,JP,139.63678,35.444996,"H04N1/3873,H04N1/40093,G06T1/20",utility,Image processing apparatus,Canon Kabushiki Kaisha,fl:ka_ln:maeshima-7,Katsuyoshi,Maeshima,[],1d2251c8-16c8-11ed-9b5f-1234bde3cd05,"4786974,4814893,4517606",1989-03-20,0-0-0
4887211,1989-12-12,1986-11-25,US,-77.434273,37.538506,"Y10S378/901,G06T11/006,G06T1/20,G06T2211/428",utility,Image processor,KABUSHIKI KAISHA TOSHIBA,fl:ge_ln:thiel-2,Geoffrey L.,Thiel,[],3f9a4f99-16c8-11ed-9b5f-1234bde3cd05,"4578752,4135247,4320453,4520442,4520442",1986-11-25,0-0-0
4901063,1990-02-13,1987-02-24,JP,139.63678,35.444996,G06T1/20,utility,Image processing apparatus which helps an operator to choose appropriate image processing,Canon Kabushiki Kaisha,fl:hi_ln:kimura-47,Hiroyuki,Kimura,[],1d2251c8-16c8-11ed-9b5f-1234bde3cd05,"4721951,4642621,4617596,4524421",1987-02-24,0-0-0
4901221,1990-02-13,1986-04-14,US,-97.743698,30.271126,"G06F3/0481,G06F30/20,G06F3/04817,G06T19/00,G06F11/3664,G06T1/20,G06F8/34,G01R31/31912",utility,Graphical system for modelling a process and associated method,National Instruments Corporation,fl:je_ln:kodosky-1,Jeffrey L.,Kodosky,[],1811f8b9-16c8-11ed-9b5f-1234bde3cd05,"4546435,4455619,4315315,4663704,4813013,4677587,4656603,4725970,4695968,4064394",1986-04-14,0-0-0
4901360,1990-02-13,1987-10-23,US,-118.644096,34.144665,G06T1/20,utility,Gated architecture for computer vision machine,Hughes Aircraft Company,fl:da_ln:shu-4,David B.,Shu,[],c3f6661c-16c7-11ed-9b5f-1234bde3cd05,"4384273,4224600,4622632,4309691,4809346,4601055,4574394,4809347,4783738,4215401,4215401",1987-10-23,0-0-0
4903227,1990-02-20,1987-07-30,JP,129.878113,32.75016,G06T1/20,utility,Processor for digitized video having common bus for real time transfer of input and output video data,"MITSUBISHI HEAVY INDUSTRIES, LTD.",fl:no_ln:fukushima-13,Nobuo,Fukushima,[],8bde50b2-16c8-11ed-9b5f-1234bde3cd05,"4409669,3875391,4635292,4652921,4628467,4538179,4701865,4485402",1987-07-30,0-0-0
4908751,1990-03-13,1987-10-15,US,-73.308655,41.413475,"G06N3/10,G06T1/20,G06F15/803",utility,Parallel data processor,,fl:ha_ln:smith-22,Harry F.,Smith,[],08354425-16c8-11ed-9b5f-1234bde3cd05,"4809348,4601055,4622632,4739474,4739476,4745546,4639857,4633427,4641238,4603398,4635292,4814973,4742552,4736439,4720780,4814973,4742552,4736439,4720780",1987-10-15,0-0-0
4916659,1990-04-10,1988-02-18,NL,5.478633,51.439262,"G06F15/8053,G06T1/20",utility,Pipeline system with parallel data identification and delay of data identification signals,U.S. Philips Corporation,fl:er_ln:persoon-1,Eric H. J.,Persoon,[],789bce50-16c8-11ed-9b5f-1234bde3cd05,"4507728,4210962,4574345",1988-02-18,0-0-0
4924307,1990-05-08,1988-06-03,US,-88.231468,43.011673,G06T1/20,utility,Image processor,"Allen-Bradley Company, LLC",fl:ro_ln:landowski-1,Roger,Landowski,[],e6ddecd5-16c7-11ed-9b5f-1234bde3cd05,"4400728,4127849,4546384,4809189,4482861,4581762,4586036,4783827,4129858,4805019",1988-06-03,0-0-0
4928234,1990-05-22,1988-11-01,JP,139.63678,35.444996,"G06F15/167,G06T1/20,G06F13/1647",utility,Data processor system and method,SONY CORPORATION,fl:yo_ln:kitamura-26,Yoshio,Kitamura,[],1d2251c8-16c8-11ed-9b5f-1234bde3cd05,"3566363,4383297,4371929,4096572,3593300,4048623,4128876,4597054,4470110,4449183,4237534,4481572,4453211,4473880,4392200,4363094,4536839,4535330,4366539,4400768",1988-11-01,0-0-0
4937785,1990-06-26,1989-02-16,US,-122.083206,37.389389,G06T1/20,utility,Visual signal processing backplane bus,SCHLUMBERGER TECHNOLOGIES CORPORATION,fl:mi_ln:deering-3,Michael F.,Deering,[],a26e2a3b-16c8-11ed-9b5f-1234bde3cd05,"4313162,4322792,4309754,4415986,4745546,4459677,4099253,4250563,4375665,4390963,4293928,4373181,4809169,4574284,4809169,4574284",1989-02-16,0-0-0
4939575,1990-07-03,1989-09-05,US,-95.537727,29.618565,"G06T1/20,G06F15/8007,G06F15/7842,G06F11/1666",utility,Fault-tolerant serial video processor device,Texas Instruments Incorporated,fl:ji_ln:childers-1,Jimmie D.,Childers,[],db9fa2c2-16c7-11ed-9b5f-1234bde3cd05,"4346405,4684823,4790026,4550437,4817175,4805227,4776025,4791677",1989-09-05,0-0-0
4941107,1990-07-10,1987-11-17,JP,139.759445,35.682838,"G09G5/393,G06T1/20,G09G2360/127,G09G5/363",utility,Image data processing apparatus,KABUSHIKI KAISHA TOSHIBA,fl:ko_ln:hasebe-6,Kouki,Hasebe,[],42f90495-16c8-11ed-9b5f-1234bde3cd05,"4649513,4773026,4757310,4748442,4691295,4663735,4700182,4688190",1987-11-17,0-0-0
4955024,1990-09-04,1989-01-24,US,-96.692505,33.013672,"G06F7/49921,G06F7/49947,G06T1/20,G06F7/57,G06F7/5443,G06F5/015,G06F2207/3828",utility,High speed image processing computer with error correction and logging,"VISUAL INFORMATION TECHNOLOGIES, INC.",fl:da_ln:pfeiffer-3,David,Pfeiffer,[],c8ea0862-16c7-11ed-9b5f-1234bde3cd05,"4308557,4698811,4456996,4692922,4542454,4733396,4788685,4633472,4394763,4633472,4394763",1989-01-24,0-0-0
4965841,1990-10-23,1988-10-04,JP,137.002792,34.974678,"G06T1/20,G06V10/507",utility,Luminance cumulative integrating method and apparatus in image processes,"Nippondenso Co., Ltd.",fl:ya_ln:kaneko-17,Yasuhiro,Kaneko,[],8bf15d99-16c8-11ed-9b5f-1234bde3cd05,"4528634,4162481,4606635,4555800,4555802,4021778,4620491,4326258,4653998,4628465,4653998,4628465",1988-10-04,0-0-0
4975843,1990-12-04,1988-11-25,US,-81.418449,41.598385,"G06T1/20,G06F15/8015",utility,Parallel array processor with interconnected functions for image processing,"Picker International, Inc.",fl:ca_ln:brunnett-1,Carl J.,Brunnett,[],f69e4bc7-16c7-11ed-9b5f-1234bde3cd05,"4504909,4494141,4310879,4298936,4745544,4745544",1988-11-25,0-0-0
4979096,1990-12-18,1987-02-17,JP,139.454208,35.709671,"G06T1/20,G06F15/8015",utility,Multiprocessor system,"HITACHI, LTD.",fl:hi_ln:ueda-39,Hirotada,Ueda,[],93596d2c-16c8-11ed-9b5f-1234bde3cd05,"4550437,4491915,4149242,4524455,4663706,4257100,4257100",1987-02-17,0-0-0
4982342,1991-01-01,1988-11-03,JP,136.899841,35.185104,"G06F1/03,G06T1/20",utility,Image processor system having multifunction look-up table units,KABUSHIKI KAISHA TOYOTA CHUO KENKYUSHO,fl:hi_ln:moribe-1,Hiroshi,Moribe,[],8bf1423e-16c8-11ed-9b5f-1234bde3cd05,"4790026,4538299,4695884,4385318,4817175,4791675,4817175,4791675",1988-11-03,0-0-0
4985848,1991-01-15,1987-09-14,US,-96.692505,33.013672,"G06F7/57,G06F7/49947,G06F5/015,G06F7/49921,G06F2207/3828,G06T1/20,G06F7/5443",utility,High speed image processing system using separate data processor and address generator,"VISUAL INFORMATION TECHNOLOGIES, INC.",fl:da_ln:pfeiffer-3,David,Pfeiffer,[],c8ea0862-16c7-11ed-9b5f-1234bde3cd05,"4491834,4602285,4644495,4472732,4437121,4386410,3858198,4070710,4511962,4514818,3787673,4500875,4121283,4613852,3735363,4237543,3614742,4616220,4482979,4563703,3976982,4208723,4120028,4631750,4606065,4395697,3499979,4303986,3641555,4266242,4439759,3996585,3697678,4395700,4173783,4119955,3614766,4611232,4484187,4463380,3868649,4475161,4533910,4595958,4057836,3739345,4183058,3716842,4128880,4309691,4442495,4574277,4578812,4330833,4564915,4511965,4090174,4484349,4434502,4498155,3996559,4545068,4808988,4435792,4609917,4628467,3347873,4103331,4148070,4459677,3995253,4477802,4165072,4633416,3771141,4228430,4149152,4104624,4439760,4620186,4442855,4163249,4602286,4543645,4229797,4485402,4414621,4484346,4468688,4258385,4571635,3891792,3959774,4197590,3938102,Re31200,4259718,4467412,4357624,4606066,4463372,4375638,3906480,4395698,4562435,4467412,4357624,4606066,4463372,4375638,3906480,4395698,4562435",1987-09-14,0-0-0
4989138,1991-01-29,1990-05-14,US,-122.670647,45.420673,"G06T1/20,G06F9/4494",utility,Single bus graphics data processing pipeline with decentralized bus arbitration,"Tektronix, Inc.",fl:pi_ln:radochonski-1,Pierre,Radochonski,[],c7583d1c-16c7-11ed-9b5f-1234bde3cd05,4542455,1990-05-14,0-0-0
4991019,1991-02-05,1989-02-09,JP,139.759445,35.682838,"H04N5/445,H04N9/64,G06T1/20,H04N5/278",utility,Digital video signal processing system,NIPPON HOSO KYOKAI,fl:ka_ln:enami-1,Kazumasa,Enami,[],42f90495-16c8-11ed-9b5f-1234bde3cd05,"4677470,4774578,4485402,4679085,4642694,4679085,4642694",1989-02-09,0-0-0
5007100,1991-04-09,1989-10-10,US,-83.046638,42.331547,G06T1/20,utility,Diagnostic system for a parallel pipelined image processing system,Unisys Corporation,fl:ro_ln:d'aoust-2,Robert,D'Aoust,[],1ad5627f-16c8-11ed-9b5f-1234bde3cd05,"4484349,4811413,4685144,4524455",1989-10-10,0-0-0
5008949,1991-04-16,1990-05-21,JP,139.759445,35.682838,"G06T1/20,G06F3/005,H04N1/32566,H04N1/00915",utility,Image processing system,Canon Kabushiki Kaisha,fl:sh_ln:arimoto-3,Shinobu,Arimoto,[],42f90495-16c8-11ed-9b5f-1234bde3cd05,"4661857,4442543,4571633,3751582,4394774,4426731,4566127,4533956,4571634,4441208",1990-05-21,0-0-0
5020124,1991-05-28,1989-10-10,US,-83.046638,42.331547,G06T1/20,utility,Method and apparatus for detecting document size in an imaging system,Unisys Corporation,fl:ro_ln:d'aoust-2,Robert,D'Aoust,[],1ad5627f-16c8-11ed-9b5f-1234bde3cd05,"4783837,4613986,4504969,4510618,4672186,4656665,4363036,4087788,4399467,4412252,4410965,4736443,4510619,4821335,4091424,4933979,3652791,4091424,4933979,3652791",1989-10-10,0-0-0
5029018,1991-07-02,1988-11-17,JP,139.63678,35.444996,"G06T1/20,G06F15/8007",utility,Structure of image processing system,"NISSAN MOTOR CO., LTD.",fl:ka_ln:noso-2,Kazunori,Noso,[],1d2251c8-16c8-11ed-9b5f-1234bde3cd05,"4727423,4891633",1988-11-17,0-0-0
5029226,1991-07-02,1989-10-10,US,-83.37632,42.464481,G06T1/20,utility,Method and apparatus for effecting spot/void filtering of image data,Unisys Corporation,fl:ro_ln:klein-23,Robert,Klein,[],ec48728a-16c7-11ed-9b5f-1234bde3cd05,"4613986,4298895,4903316,3761876,4412252,4510618,4399467,4410965,3652791,4087788,4363036,4510619,4408343,4162481,4091424,4672186,4091424,4672186",1989-10-10,0-0-0
5034806,1991-07-23,1990-09-18,JP,139.63678,35.444996,"G06T1/20,H04N1/3875",utility,Image processing apparatus and method,Canon Kabushiki Kaisha,fl:yo_ln:ikeda-46,Yoshinori,Ikeda,[],1d2251c8-16c8-11ed-9b5f-1234bde3cd05,"4896208,4403249,4417805,4682190,4905097,4905097",1990-09-18,0-0-0
5043713,1991-08-27,1989-05-11,JP,140.650467,36.599121,"G06T11/203,G06T1/20,G06T17/00,G09G5/363,G09G5/393,G09G2360/127,G09G5/024,G09G5/399,G09G5/20,G06T1/60,G09G5/39,G09G5/36,G09G5/395",utility,Graphic data processing apparatus for processing pixels having a number of bits which may be selected,"Hitachi Engineering Co., Ltd.",fl:ko_ln:katsura-2,Koyo,Katsura,[],b6d74843-16c7-11ed-9b5f-1234bde3cd05,"4121283,4639879,4667305,4509043",1989-05-11,0-0-0
5046190,1991-09-03,1988-09-06,FR,2.265385,48.746784,G06T1/20,utility,Pipeline image processor,"Allen-Bradley Company, LLC",fl:th_ln:daniel-6,Thomas,Daniel,[],44f194ef-16c8-11ed-9b5f-1234bde3cd05,"4363104,4685144,4060713,4506382,4301443,4423414,3905018,4174514,4484349,4398176,4322716,4003024,4298858,4665554,4395698,4083035,4215401,4192004,3805035,4290049,4330833,4293920,4395697,4665551,4369430,4167728",1988-09-06,0-0-0
5046023,1991-09-03,1987-10-06,JP,140.530838,36.537304,"G09G5/024,G09G5/393,G06T1/20,G09G5/399,G06T11/203",utility,Graphic processing system having bus connection control capable of high-speed parallel drawing processing in a frame buffer and a system memory,"Hitachi Engineering Co., Ltd.",fl:ko_ln:katsura-2,Koyo,Katsura,[],a05c4099-16c8-11ed-9b5f-1234bde3cd05,"4773026,4533910,4677573,4542376,4475161,4528636,4564915",1987-10-06,0-0-0
5048108,1991-09-10,1988-11-15,FR,1.47491,43.546055,G06T1/20,utility,Data processing device with processors arranged in a looped line configuration using helicoidal addressing for processing data relating to pixels,ADERMIP (Association pour le Development de l'Enseignement de l'Economic et et des Recherches de Midi Pyrenees,3mmjy1pul6a5yehy0mnw506t3,Jean-Luc,Basille,[],bbb716e4-16c7-11ed-9b5f-1234bde3cd05,"4949390,3814906,4908751",1988-11-15,0-0-0
5056041,1991-10-08,1989-07-31,US,-95.537727,29.618565,"G06F9/30087,G06F9/3004,G06T1/20,G06F9/30018",utility,Data processing apparatus with improved bit masking capability,Texas Instruments Incorporated,fl:ka_ln:guttag-1,Karl M.,Guttag,[],db9fa2c2-16c7-11ed-9b5f-1234bde3cd05,"4460957,4779223,4405979,4562537",1989-07-31,0-0-0
5063525,1991-11-05,1990-07-09,JP,139.414688,35.661068,"G06T1/20,G06T5/20",utility,Picture processing apparatus including data conversion table for performing convolutional processing,FANUC CORPORATION,fl:mi_ln:kurakake-2,Mitsuo,Kurakake,[],932dc780-16c8-11ed-9b5f-1234bde3cd05,"4829454,4823281,4162481,4225861,4635292,4156914,4755954,4852024",1990-07-09,0-0-0
5070531,1991-12-03,1990-11-05,DE,11.575382,48.137104,G06T1/20,utility,Method of and means for processing image data,Oce-Nederland B.V.,fl:co_ln:schuerman-1,Cornelis P.,Schuerman,[],145cee04-16c8-11ed-9b5f-1234bde3cd05,"4908751,4805227,4550437,4484349",1990-11-05,0-0-0
5075843,1991-12-24,1989-06-21,US,-74.936531,40.229404,G06T1/20,utility,Method and apparatus for processing graphical information,AT&T Bell Laboratories,fl:ga_ln:selzer-1,Gary M.,Selzer,[],05dce909-16c8-11ed-9b5f-1234bde3cd05,"4757461,4467409,4432047,4725966,4496944,4395700",1989-06-21,0-0-0
5077810,1991-12-31,1990-07-19,US,-77.615211,43.15728,"H04N5/335,G06T1/20",utility,Distributed digital signal processing system using standard resolution processors for a high resolution sensor,EASTMAN KODAK COMPANY,fl:li_ln:d'luna-1,Lionel J.,D'Luna,[],d929a955-16c7-11ed-9b5f-1234bde3cd05,"4805227,4484349,4709394,4790026,4363104,4692812,4384336,4288820,4314281,4791677,4791677",1990-07-19,0-0-0
5093871,1992-03-03,1989-10-10,US,-83.37632,42.464481,G06T1/20,utility,Method and apparatus for effecting background suppression of image data,Unisys Corporation,fl:ro_ln:klein-23,Robert,Klein,[],ec48728a-16c7-11ed-9b5f-1234bde3cd05,"4613986,4510618,3805239,3668637,4734784,4710822,4087788,4412252,3652791,4672186,4510619,4410965,4091424,4399467,4747149,4804842,4675909,4363036,4363036",1989-10-10,0-0-0
5103311,1992-04-07,1990-10-01,NL,5.478633,51.439262,"G06T1/20,G06F9/3885",utility,Data processing module and video processing system incorporating same,U.S. Philips Corporation,fl:ro_ln:sluijter-1,Robert J.,Sluijter,[],789bce50-16c8-11ed-9b5f-1234bde3cd05,"4365104,4628481,4797740,4800430,4853784,4790026,4790026",1990-10-01,0-0-0
5109348,1992-04-28,1989-01-24,US,-96.692505,33.013672,"G06F7/5443,G06F7/57,G06F7/49921,G06T1/20,G06F7/49947,G06F5/015,G06F2207/3828",utility,High speed image processing computer,"VISUAL INFORMATION TECHNOLOGIES, INC.",fl:da_ln:pfeiffer-3,David,Pfeiffer,[],c8ea0862-16c7-11ed-9b5f-1234bde3cd05,"4633416,4751669,4595958,4514818,4876651,4631750,4578812,4080651,4472732,4606065,4545068,3976982,3938102,3771141,4330833,4613852,4208723,4463380,4259718,4533910,4484346,3959774,4484187,4562435,3739345,4103331,4258385,4104624,Re31200,4173783,4467412,4309691,4375638,3868649,4500875,4119955,3787673,3996559,4442495,3735363,4644495,4434502,4120028,4571635,4148070,4439760,4620186,4564915,4543645,4468688,4720803,4606066,4228430,4229797,4616220,4437121,4511962,4395697,3906480,3891792,4197590,4609917,4731742,4386410,4357624,4121283,4395700,4163249,3641555,4574277,4477802,4463372,4057836,4563703,4484349,4800489,3995253,4183058,4656596,4498155,4266242,4149152,4439759,4303986,4090174,4070710,4611232,4485402,4602285,4414621,4165072,4475161,4080652,4482979,4628467,4435792,4459677,3614766,4602286,3996585,4128880,4237543,3614742,3697678,4511965,4395698,3716842,4491834,4602286,3996585,4128880,4237543,3614742,3697678,4511965,4395698,3716842,4491834",1989-01-24,0-0-0
5113494,1992-05-12,1990-11-09,IE,-6.260273,53.349766,"G06K2215/0008,G06K2215/0062,G06K2215/0002,G06K2215/0011,G06K15/00,G06T1/20,G06K2215/0071,G06K15/1856",utility,High speed raster image processor particularly suited for use in an image management system,EASTMAN KODAK COMPANY,fl:ju_ln:menendez-2,Juan G.,Menendez,[],6aa02d92-16c8-11ed-9b5f-1234bde3cd05,"4785394,4672680,4727589,4587621,4549275,4718024,4665501,4528693,4587633,4722064,4684997,4694396,4532602,4748511,4595958,4653112,4408301,4653112,4408301",1990-11-09,0-0-0
5128760,1992-07-07,1990-07-30,FR,7.10905,43.583599,"H04N7/0132,G06T1/20,H04N7/012,H04N5/14,H03H17/06",utility,Television scan rate converter,Texas Instruments Incorporated,fl:ge_ln:chauvel-1,Gerard,Chauvel,[],46556b28-16c8-11ed-9b5f-1234bde3cd05,"4791677,4939575,4786820",1990-07-30,0-0-0
5129060,1992-07-07,1989-01-24,US,-96.692505,33.013672,"G06F7/49921,G06T1/20,G06F5/015,G06F7/5443,G06F2207/3828,G06F7/49947,G06F7/57",utility,High speed image processing computer,"VISUAL INFORMATION TECHNOLOGIES, INC.",fl:da_ln:pfeiffer-3,David,Pfeiffer,[],c8ea0862-16c7-11ed-9b5f-1234bde3cd05,"3641555,3891792,4303986,4511965,3996585,4119955,4564915,4578812,4484349,4511962,4571635,4309691,4148070,4439759,4414621,3787673,4482979,4545068,4514818,4463380,3716842,3614742,4500875,4434502,4492956,4183058,4375638,4442495,4395700,4467412,3938102,4543645,4485402,4229797,4491836,4602285,3868649,4237543,4475161,3614766,3995253,4070710,4498155,4562435,4128880,4330833,4197590,3697678,4463372,4163249,Re31200,4357624,4104624,4459677,4595958,4477802,4574277,3735363,4386410,3976982,4395698,4602286,4258385,4120028,4491834,4472732,4395697,4208723,4484187,4103331,4266242,4574347,4563703,4165072,4259718,4173783,3906480,4149152,4468688,4057836,3771141,4484346,4435792,3996559,4439760,4228430,4121283,3739345,4533910,3959774,4437121,4090174,3739345,4533910,3959774,4437121,4090174",1989-01-24,0-0-0
5129092,1992-07-07,1987-06-01,US,-83.731224,42.268158,"G06F9/3887,G06F9/3885,G06T1/20,G06F15/8015",utility,Linear chain of parallel processors and method of using same,"Applied Intelligent Systems, Inc.",fl:st_ln:wilson-37,Stephen S.,Wilson,[],4c7a9f37-16c8-11ed-9b5f-1234bde3cd05,"4525797,4736288,4174514,4731724,4829585,3537074,4621339,3970993,4215401,4739474,4787057,4314349,3582899,4314349,3582899",1987-06-01,0-0-0
5138702,1992-08-11,1990-05-21,JP,136.068726,35.15279,"H04N1/32529,H04N1/32539,H04N1/32518,H04N1/32512,H04N1/32502,H04N2201/0082,G06T1/20,H04N2201/0081,H04N1/32534",utility,External image input/output device connectable image processing system,Minolta Camera Kabushiki Kaisha,fl:ka_ln:tada-25,Kaoru,Tada,[],89520180-16c8-11ed-9b5f-1234bde3cd05,"4486870,4581656,4769852,4658299,4791492,4797706,4636939,4734786,4695895,4471348,4695895,4471348",1990-05-21,0-0-0
5140314,1992-08-18,1989-02-15,GB,-0.225874,51.76347,"G06T1/00,G06T1/20",utility,Image assembly,Crosfield Electronics Limited,fl:pe_ln:stansfield-1,Peter W.,Stansfield,[],4e25452b-16c8-11ed-9b5f-1234bde3cd05,"4484187,4257044,4688032,4868884,4924388,4789855,4878178,4580134,4580134",1989-02-15,0-0-0
5140444,1992-08-18,1989-10-10,US,-83.37632,42.464481,G06T1/20,utility,Image data processor,Unisys Corporation,fl:ro_ln:klein-23,Robert,Klein,[],ec48728a-16c7-11ed-9b5f-1234bde3cd05,"4399467,3652791,4888650,5086346,4363036,4410965,4087788,4091424,4510618,4541116,4933775,4510619,4807020,4763200,4613986,4412252,4853795,4672186",1989-10-10,0-0-0
5140687,1992-08-18,1989-09-27,US,-97.827835,30.521711,"G06F9/455,G06F9/30043,G06T1/20",utility,Data processing apparatus with self-emulation capability,Texas Instruments Incorporated,fl:th_ln:dye-2,Thomas A.,Dye,[],7ae82d76-16c8-11ed-9b5f-1234bde3cd05,"4623962,4674089,4785416,4638423,4441154,4675833,4809167,4731742,4628467",1989-09-27,0-0-0
5142621,1992-08-25,1990-03-21,US,-95.367706,29.758938,"G06T1/20,G06F9/345,G06F9/3885,G06F15/7857",utility,Graphics processing apparatus having instruction which operates separately on X and Y coordinates of pixel location registers,Texas Instruments Incorporated,fl:ka_ln:guttag-1,Karl M.,Guttag,[],4e49a0a0-16c8-11ed-9b5f-1234bde3cd05,"4654804,4528634,4412296,4570161,4701864,4580135,4495491,4779210,4779210",1990-03-21,0-0-0
5144456,1992-09-01,1990-01-02,JP,139.47345,35.66111,G06T1/20,utility,Image processing apparatus and method,"RICOH COMPANY, LTD.",fl:yu_ln:sakano-3,Yukio,Sakano,[],9313e6b2-16c8-11ed-9b5f-1234bde3cd05,"4984283,4298895,4760464,4851920",1990-01-02,0-0-0
5146592,1992-09-08,1989-01-24,US,-96.692505,33.013672,"G06F5/015,G06F7/5443,G06F7/57,G06F2207/3828,G06F7/49921,G06T1/20,G06F7/49947",utility,High speed image processing computer with overlapping windows-div,"VISUAL INFORMATION TECHNOLOGIES, INC.",fl:da_ln:pfeiffer-3,David,Pfeiffer,[],c8ea0862-16c7-11ed-9b5f-1234bde3cd05,"4602286,4128880,4070710,4595958,3996559,4468688,3614742,4482979,4467412,4439759,4148070,3697678,4511965,3938102,3996585,4574277,4620186,4357624,4475161,4606065,3868649,4197590,4602285,4183058,4484187,4121283,4543645,4633416,4613852,4498155,4120028,4611232,4173783,4500875,4266242,3735363,4578812,4090174,4395698,4606066,4386410,Re31200,3771141,4442495,4459677,4103331,4562435,4208723,4395700,4653012,4484346,4477802,4747081,4435792,4414621,4496944,4057836,4463372,4710767,4545068,4165072,4258385,4259718,4789963,3641555,3906480,4628467,4439760,4653020,4571635,4545070,4631750,4609917,4563703,3614766,4616220,4149152,4104624,4229797,4375638,3739345,4119955,4485402,3716842,4491834,3891792,4434502,3976982,4330833,4395697,4437121,4472732,4309691,4237543,4163249,3787673,4644495,3995253,4694288,4228430,3959774,4511962,4564915,4303986,4514818,4533910,4463380,4484349,3995253,4694288,4228430,3959774,4511962,4564915,4303986,4514818,4533910,4463380,4484349",1989-01-24,0-0-0
5157739,1992-10-20,1991-07-02,JP,135.50145,34.693756,G06T1/20,utility,Digital image processing apparatus,Minolta Camera Kabushiki Kaisha,fl:ya_ln:masaki-3,Yasuo,Masaki,[],8d09bc30-16c8-11ed-9b5f-1234bde3cd05,"4665556,4845663,4301443,4876651,4484346,4850027",1991-07-02,0-0-0
5159551,1992-10-27,1989-08-09,US,-81.418449,41.598385,"G06T1/20,G06T11/006,G06T2211/428",utility,Prism architecture for CT scanner image reconstruction,"Picker International, Inc.",fl:ca_ln:brunnett-1,Carl J.,Brunnett,[],f69e4bc7-16c7-11ed-9b5f-1234bde3cd05,"4817091,4672535,4707822,4777595,4564900,4956772",1989-08-09,0-0-0
5162784,1992-11-10,1990-05-10,US,-95.537727,29.618565,"G09G5/393,G09G2340/10,G06T1/20",utility,Graphics data processing apparatus with draw and advance operation,Texas Instruments Incorporated,fl:ka_ln:guttag-1,Karl M.,Guttag,[],db9fa2c2-16c7-11ed-9b5f-1234bde3cd05,"4653020,3471848,4862150,4779210,4320395,4197590,4680643,4636783,4649377,3952297,4613852,4636783,4649377,3952297,4613852",1990-05-10,0-0-0
5170263,1992-12-08,1990-10-10,JP,139.63678,35.444996,"H04N1/41,G06T1/20",utility,Image processing system,"FUJI XEROX CO., LTD.",fl:ma_ln:hisatake-1,Masayuki,Hisatake,[],1d2251c8-16c8-11ed-9b5f-1234bde3cd05,4652934,1990-10-10,0-0-0
5175838,1992-12-29,1989-05-08,JP,139.63678,35.444996,"G09G5/393,G06F7/575,G06T1/20,G09G2340/10,G06T1/60",utility,Memory circuit formed on integrated circuit device and having programmable function,"HITACHI, LTD.",fl:ko_ln:kimura-27,Koichi,Kimura,[],1d2251c8-16c8-11ed-9b5f-1234bde3cd05,"4317114,3984670,4231085,4639768,4559533,4450442,3976982,4484187,4653020,4616336,4531120,4435792,4550315,4435792,4550315",1989-05-08,0-0-0
5185859,1993-02-09,1991-08-15,US,-95.537727,29.618565,"G06F9/30018,G06F9/3004,G06F9/455,G06T1/20",utility,"Graphics processor, a graphics computer system, and a process of masking selected bits",Texas Instruments Incorporated,fl:ka_ln:guttag-1,Karl M.,Guttag,[],db9fa2c2-16c7-11ed-9b5f-1234bde3cd05,"4562537,4460957,4405979,4779223",1991-08-15,0-0-0
5187777,1993-02-16,1989-09-21,US,-117.659409,33.596569,"G06T1/20,G06T7/20",utility,Multi-function pre-processor for target tracking,Loral Aerospace Corp.,fl:ma_ln:conboy-1,Mark A.,Conboy,[],c8d3c34e-16c7-11ed-9b5f-1234bde3cd05,"4484346,4937777,4499597,4975977,4464789,4750144,4433438,4484349,4363104,4920337,4876651,4860218,4790026,4860218,4790026",1989-09-21,0-0-0
5191647,1993-03-02,1991-02-07,JP,135.804825,34.684544,G06T1/20,utility,Image data processing system,Minolta Camera Kabushiki Kaisha,fl:ya_ln:masaki-3,Yasuo,Masaki,[],1bce7c31-16c8-11ed-9b5f-1234bde3cd05,"4760525,4342029,4706205,4636858,4777615,4342095,4591902,4462028,4266270,4462073,4266270,4462073",1991-02-07,0-0-0
5197140,1993-03-23,1989-11-17,GB,-0.467504,52.136379,"G06F9/30036,G06F9/345,G06F15/8015,G06T1/20",utility,Sliced addressing multi-processor and method of operation,Texas Instruments Incorporated,fl:ke_ln:balmer-1,Keith,Balmer,[],73ebd4b9-16c8-11ed-9b5f-1234bde3cd05,"4562535,5101338,3683163,3260840,4860248,4644496,3728532,4747043,4953101,4888679",1989-11-17,0-0-0
5210836,1993-05-11,1989-10-13,US,-95.760773,29.582182,"F02B2075/027,G06F15/8007,G06T1/20",utility,Instruction generator architecture for a video signal processor controller,Texas Instruments Incorporated,fl:ji_ln:childers-2,Jim,Childers,[],de4009e3-16c7-11ed-9b5f-1234bde3cd05,"4566063,4710965,4833638,4603384,4914584,4928238,4939575,4773038,4524455,4905143,4562435,4287669,4739474,4215401,5056004,4876642,4908751,4972494,4951042,4829585,4713749,5003471,4484261,5070466,4939642,5070466,4939642",1989-10-13,0-0-0
5210705,1993-05-11,1992-05-20,FR,7.10905,43.583599,"H04N5/14,H04N7/0132,H03H17/06,Y10S348/914,G06T1/20,H04N7/012",utility,"Digital filtering with single-instruction, multiple-data processor",Texas Instruments Incorporated,fl:ge_ln:chauvel-1,Gerard,Chauvel,[],46556b28-16c8-11ed-9b5f-1234bde3cd05,"4745546,4821223,5068799,4918524,4141035,4769778,4754322,5012329,4683490,4789890,5034907,4984286,4775952,4727415,4602285,4843457,4829367,4994906,4707647,4707647",1992-05-20,0-0-0
5230027,1993-07-20,1991-09-05,JP,139.759445,35.682838,"G06T2207/30141,G06T1/20,G06T2207/20036,G06T7/0004",utility,Image processor and automated optical inspection system using the same,NEC CORPORATION,fl:hi_ln:kikuchi-41,Hideo,Kikuchi,[],42f90495-16c8-11ed-9b5f-1234bde3cd05,"4167728,4541114,4414685,4893346,4510616,4174514,4477926",1991-09-05,0-0-0
5231679,1993-07-27,1990-08-27,JP,135.56665,34.746902,G06T1/20,utility,Image processing apparatus and image reducing circuit therefor,"SANYO Electric Co., Ltd.",fl:hi_ln:matsuura-33,Hidefumi,Matsuura,[],8a6d91f7-16c8-11ed-9b5f-1234bde3cd05,"4684997,4893258,4811413,4123794",1990-08-27,0-0-0
5237656,1993-08-17,1990-02-12,JP,139.759445,35.682838,G06T1/20,utility,Image processing apparatus using look-up tables,FANUC CORPORATION,fl:mi_ln:kurakake-2,Mitsuo,Kurakake,[],42f90495-16c8-11ed-9b5f-1234bde3cd05,4709231,1990-02-12,0-0-0
5237686,1993-08-17,1992-09-14,JP,139.63678,35.444996,"G06T1/20,H04N19/98",utility,Multiprocessor type time varying image encoding system and image processor with memory bus control table for arbitration priority,"MITSUBISHI HEAVY INDUSTRIES, LTD.",fl:ke_ln:asano-6,Kenichi,Asano,[],1d2251c8-16c8-11ed-9b5f-1234bde3cd05,,1992-09-14,0-0-0
5239628,1993-08-24,1989-08-18,JP,139.63678,35.444996,G06T1/20,utility,System for asynchronously generating data block processing start signal upon the occurrence of processing end signal block start signal,SONY CORPORATION,fl:at_ln:hasebe-2,Atsushi,Hasebe,[],1d2251c8-16c8-11ed-9b5f-1234bde3cd05,"4530051,4574351,4591973,4663730,4024510,4628442,4346439,4607328,4644463,4244019,4503490,4447873,4435762,4330822,4442505,4490788,4454595,3673576",1989-08-18,0-0-0
5249266,1993-09-28,1992-04-08,US,-97.827835,30.521711,"G06F9/455,G06T1/20,G06F9/30043",utility,Data processing apparatus with self-emulation capability,Texas Instruments Incorporated,fl:th_ln:dye-2,Thomas A.,Dye,[],7ae82d76-16c8-11ed-9b5f-1234bde3cd05,"4623962,4514805,4638423,4731742,4674089,4809167,4628467,4785416,5140687,4675833",1992-04-08,0-0-0
5253308,1993-10-12,1989-06-21,US,-119.827644,34.435829,"G06T1/20,G06F15/8023",utility,Massively parallel digital image data processor using pixel-mapped input/output and relative indexed addressing,"Amber Engineering, Inc.",fl:wi_ln:johnson-8,William K.,"Johnson, III",[],c402ac78-16c7-11ed-9b5f-1234bde3cd05,"3287702,4507726,3106698,3979728,3364472,3287703,4270169,3296426,4192004,4468727,4580215,4314349,4144566,4908751,4467422,4498134,4380046,4593351,4215401,4101960,3815095,3312943,4739474,4550437,3308436,4739474,4550437,3308436",1989-06-21,0-0-0
5262965,1993-11-16,1988-10-31,US,-111.886803,40.759617,"G06T1/20,G06F15/8015",utility,"System and method for high speed computer graphics image computation using a parallel connected, asynchronous multiprocessor ring coupled to a synchronous special purpose video processing ring",BTS Broadcast Television Systems GmbH,fl:le_ln:putnam-1,Leland K.,Putnam,[],c1bffd96-16c7-11ed-9b5f-1234bde3cd05,"4456956,4689683,4354226,4424572,4602365,4374428,4631666,4688106,4646075,4513370,4646075,4513370",1988-10-31,0-0-0
5276803,1994-01-04,1991-01-22,JP,139.63678,35.444996,"G06F15/173,G06T1/20",utility,Image signal processing circuit having a multiple port memory,SONY CORPORATION,fl:se_ln:iwase-2,Seiichiro,Iwase,[],1d2251c8-16c8-11ed-9b5f-1234bde3cd05,"4791580,4823281,4941107",1991-01-22,0-0-0
5276787,1994-01-04,1990-04-17,GB,-1.324221,51.402023,"G06T1/20,G06F3/04845,G06T11/001,G06T11/00",utility,Electronic graphic system,Quantel Limited,fl:an_ln:searby-1,Anthony D.,Searby,[],bd13cb01-16c7-11ed-9b5f-1234bde3cd05,"4263648,4970664,4181933,4181933",1990-04-17,0-0-0
5276786,1994-01-04,1992-07-01,AU,152.045792,-25.5105,G06T1/20,utility,Video graphics systems separately processing an area of the picture before blending the processed area into the original picture,Quantel Limited,fl:ro_ln:long-14,Robert J.,Long,[],3c817828-16c8-11ed-9b5f-1234bde3cd05,"4775858,4602256,4514818,4894646,4862155,4905185,4751507,4809201,4546349",1992-07-01,0-0-0
5283863,1994-02-01,1991-11-20,US,-95.367706,29.758938,"G06T1/20,G06F9/455,G06F9/30043,G09G5/14",utility,"Process for effecting an array move instruction, a graphics computer system, a display system, a graphics processor and graphics display system",Texas Instruments Incorporated,fl:ka_ln:guttag-1,Karl M.,Guttag,[],4e49a0a0-16c8-11ed-9b5f-1234bde3cd05,"4412296,4481594,4257044,4598384,4495491,4779210",1991-11-20,0-0-0
5283866,1994-02-01,1990-10-24,JP,139.443497,35.637184,G06T1/20,utility,Image processing system,EZEL Inc.,fl:ry_ln:kumagai-5,Ryohei,Kumagai,[],932fb7b0-16c8-11ed-9b5f-1234bde3cd05,"4574357,4665556,4749990,4604614,4631691,4459676,4648045,4484137,4817175,4827432,4649378,4648050,4716546,4725892,4580242,4648049,4658247,4727497,4768029,4591897,4663619,4533952,4747081,4488174,4748442,4742474,4364037,4364037",1990-10-24,0-0-0
5287416,1994-02-15,1992-08-17,US,-83.373352,42.568558,G06T1/20,utility,Parallel pipelined image processor,Unisys Corporation,fl:jo_ln:capo-1,Joseph M.,Capo,[],12179a74-16c8-11ed-9b5f-1234bde3cd05,"4791676,4484346,4174514,4888812,4949390,4916659,5070531,4672186,4908719,5007100,4410965,4613986,4510618,4379283,4484349,4087788,4091424,4399467,4908874,4684997,5129092,3652791,5048104,4363036,4510619,4412252,4510619,4412252",1992-08-17,0-0-0
5293481,1994-03-08,1993-06-03,JP,139.702789,35.530529,"G06F15/8023,G06T1/20",utility,Data parallel processing apparatus,Canon Kabushiki Kaisha,fl:yo_ln:mita-9,Yoshinobu,Mita,[],1c0a3d5a-16c8-11ed-9b5f-1234bde3cd05,"4648050,4773026,4786820,4697176,4739474,4809347,4773044,4908751,4622632,4622547,4622547",1993-06-03,0-0-0
5293637,1994-03-08,1993-06-10,US,-95.537727,29.618565,"F02B2075/027,G06F15/8007,G06T1/20",utility,Distribution of global variables in synchronous vector processor,Texas Instruments Incorporated,fl:ji_ln:childers-2,Jim,Childers,[],db9fa2c2-16c7-11ed-9b5f-1234bde3cd05,"4747081,4897818,4757473,4688189,4739474,4939575",1993-06-10,0-0-0
5300947,1994-04-05,1991-07-29,JP,140.650467,36.599121,"G06T11/203,G09G5/399,G06T1/60,G09G5/20,G09G5/363,G06T17/00,G09G5/395,G09G5/024,G09G5/393,G06T1/20,G09G2360/127,G09G5/39,G09G5/36",utility,Graphic pattern processing apparatus,"HITACHI, LTD.",fl:ko_ln:katsura-2,Koyo,Katsura,[],b6d74843-16c7-11ed-9b5f-1234bde3cd05,"4622546,4509043,4668947",1991-07-29,0-0-0
5301026,1994-04-05,1991-12-24,KR,127.028748,37.263336,"H04N5/2625,G06T1/20,H04N5/272,H04N1/2112,H04N1/2129,H04N1/3873,H04N1/2137,H04N5/265,Y10S358/906,H04N2101/00,H04N5/937,H04N5/2624",utility,Picture editing apparatus in a digital still video camera system,"Samsung Electronics Co., Ltd.",fl:yo_ln:lee-381,Young-man,Lee,[],3eea8bf8-16c8-11ed-9b5f-1234bde3cd05,"5040068,4837628,4797751,5018017,4956725,4561020,4713693,5016107,4386367,4939593,4101926,4951143,4101926,4951143",1991-12-24,0-0-0
5305398,1994-04-19,1989-10-10,US,-83.37632,42.464481,"G06T3/403,G06T1/20",utility,Method and apparatus for scaling image data,Unisys Corporation,fl:ro_ln:klein-23,Robert,Klein,[],ec48728a-16c7-11ed-9b5f-1234bde3cd05,"3652791,4907152,4399467,4510619,4613986,4410965,4933775,4363036,4510618,4091424,4885786,4412252,4672186,4288816,4087788,4288816,4087788",1989-10-10,0-0-0
5309559,1994-05-03,1992-02-28,JP,139.759445,35.682838,G06T1/20,utility,Picture processing device having an editing function of input concatenated-command,NEC CORPORATION,fl:ak_ln:sato-32,Akihiko,Sato,[],42f90495-16c8-11ed-9b5f-1234bde3cd05,4839797,1992-02-28,0-0-0
5313286,1994-05-17,1990-06-18,JP,139.323547,35.464806,G06T1/20,utility,Image data processing apparatus and method thereof,Canon Kabushiki Kaisha,fl:su_ln:sugiura-2,Susumu,Sugiura,[],2202226a-16c8-11ed-9b5f-1234bde3cd05,"4878125,4648119,4837846,4581762,4803558,4717964,4717964",1990-06-18,0-0-0
5315701,1994-05-24,1992-08-07,US,-74.068001,41.927479,G06T1/20,utility,Method and system for processing graphics data streams utilizing scalable processing nodes,International Business Machines Corporation,fl:pa_ln:dinicola-1,Paul D.,DiNicola,[],06dca15c-16c8-11ed-9b5f-1234bde3cd05,"5179637,4811214,4866637,4888682,4876644,4967343,5077736,4850027",1992-08-07,0-0-0
5317333,1994-05-31,1992-07-17,US,-95.367706,29.758938,"G09G5/393,G09G2340/10,G06T1/20",utility,Graphics data processing apparatus with draw and advance operation,Texas Instruments Incorporated,fl:ka_ln:guttag-1,Karl M.,Guttag,[],4e49a0a0-16c8-11ed-9b5f-1234bde3cd05,"4862150,4779210,4653020,4613852,4636783,3952297,4320395,3471848,4680643,4197590,4649377,4680643,4197590,4649377",1992-07-17,0-0-0
5319794,1994-06-07,1993-08-03,JP,139.63678,35.444996,G06T1/20,utility,Device for high-speed processing of information frames,SONY CORPORATION,fl:hi_ln:fujita-25,Hiroyuki,Fujita,[],1d2251c8-16c8-11ed-9b5f-1234bde3cd05,,1993-08-03,0-0-0
5321510,1994-06-14,1992-06-05,US,-95.537727,29.618565,"G06T1/20,H04N5/14",utility,Serial video processor,Texas Instruments Incorporated,fl:ji_ln:childers-1,Jimmie D.,Childers,[],db9fa2c2-16c7-11ed-9b5f-1234bde3cd05,"4562435,4790026,4363104,4791677,4805227,4689823,4694432,4689494,4817175,4942470,4228528,4281398,4346405,4672240,4776025,4739474,4432052,4719410,4550437,4550437",1992-06-05,0-0-0
5332995,1994-07-26,1991-07-29,JP,140.650467,36.599121,"G09G5/395,G09G5/024,G09G5/39,G09G5/363,G06T1/60,G06T11/203,G09G5/393,G09G5/399,G09G5/36,G09G5/20,G09G2360/127,G06T17/00,G06T1/20",utility,Graphic pattern processing apparatus,"HITACHI, LTD.",fl:ko_ln:katsura-2,Koyo,Katsura,[],b6d74843-16c7-11ed-9b5f-1234bde3cd05,"4636783,4437093,4797809,4236228",1991-07-29,0-0-0
5333261,1994-07-26,1993-05-07,US,-95.367706,29.758938,"G06F9/345,G06F9/3885,G06F15/7857,G06T1/20",utility,Graphics processing apparatus having instruction which operates separately on X and Y coordinates of pixel location registers,Texas Instruments Incorporated,fl:ka_ln:guttag-1,Karl M.,Guttag,[],4e49a0a0-16c8-11ed-9b5f-1234bde3cd05,"5142621,5140687,5095301",1993-05-07,0-0-0
5360968,1994-11-01,1992-01-17,US,-77.615211,43.15728,"G11B7/005,G11B7/0033,G11B20/10,G06T1/20",utility,,EASTMAN KODAK COMPANY,fl:ke_ln:scott-20,Kevin C.,Scott,[],d929a955-16c7-11ed-9b5f-1234bde3cd05,"4853795,3961315,4345314,2994863,4833722,3479652,3624284,3452331,3473164,3806643,4419693,3501586,5124806,4982294,4603414,4288816,3474418,5126835,5014333,3795902,3795902",1992-01-17,0-0-0
5361385,1994-11-01,1992-08-26,IL,34.847618,31.265936,"G06F15/8015,G06T1/20,G06T15/005",utility,"Parallel computing system for volumetric modeling, data processing and visualization",,fl:re_ln:bakalash-1,Reuven,Bakalash,[],50dbf4e9-16c8-11ed-9b5f-1234bde3cd05,"5222237,4814980,4641351,4987554,4598400,5101475,5222216,4590465,4985856,5280474,5280474",1992-08-26,0-0-0
5367331,1994-11-22,1993-02-23,FR,-3.458799,48.732216,"G06T1/20,G06T9/00,H04N7/148",utility,"Video codec, for a videophone terminal of an integrated services digital network",Alcatel N.V.,fl:fe_ln:secher-1,Fernand,Secher,[],1a99cefc-16c8-11ed-9b5f-1234bde3cd05,"5046080,4949169,4949169",1993-02-23,0-0-0
5369744,1994-11-29,1990-10-12,JP,140.650467,36.599121,"G06T1/20,G06F12/10",utility,"Address-translatable graphic processor, data processor and drawing method with employment of the same","HITACHI, LTD.",fl:ta_ln:fukushima-16,Tadashi,Fukushima,[],b6d74843-16c7-11ed-9b5f-1234bde3cd05,"4791580,4967374,4862150,4737909,4376296,4860192,4860192",1990-10-12,0-0-0
5375198,1994-12-20,1993-12-03,US,-95.367706,29.758938,"G06F9/455,G09G5/14,G06T1/20,G06F9/30043",utility,"Process for performing a windowing operation in an array move, a graphics computer system, a display system, a graphic processor and a graphics display system",Texas Instruments Incorporated,fl:ka_ln:guttag-1,Karl M.,Guttag,[],4e49a0a0-16c8-11ed-9b5f-1234bde3cd05,"5283863,4779210,4412296,4481594,4257044,4598384,5077678,5185859,4495491,4495491",1993-12-03,0-0-0
5376963,1994-12-27,1993-03-31,US,-75.927948,40.335342,"G06T5/007,G06T2207/10024,G06T2207/20084,G06T5/10,G06T1/20",utility,Neural network video image processor,"Panasonic Technologies, Inc.",fl:an_ln:zortea-1,Anthony Eugene,Zortea,[],b24c7d1c-16c7-11ed-9b5f-1234bde3cd05,"5214745,5005206,5216250,5161014,5184218,5255347,5053974,5161203,5216463,5168352",1993-03-31,0-0-0
5381516,1995-01-10,1992-10-30,FR,2.187457,48.699181,"G06V10/457,G06T7/00,G06T1/20",utility,Binary resistor network and its use for labelling related components of digitised images in artificial vision,FRANCE TELECOM,fl:fr_ln:devos-1,Francis,Devos,[],44fe85e3-16c8-11ed-9b5f-1234bde3cd05,"4962471,4809347,5038386",1992-10-30,0-0-0
5386510,1995-01-31,1992-04-03,NL,3.496728,51.563213,"G09G5/393,G06T1/20",utility,Method of and apparatus for converting outline data to raster data,Oce-Nederland B.V.,fl:ro_ln:jacobs-41,Robertus E.,Jacobs,[],78f3d3b3-16c8-11ed-9b5f-1234bde3cd05,"5113523,4614941,4564901,4564901",1992-04-03,0-0-0
5388841,1995-02-14,1992-01-30,GB,-0.127647,51.50732,"G06F9/3814,G06F9/3802,G06T1/20,G06F9/3879,A63F2300/203,G06T17/00",utility,External memory system having programmable graphics processor for use in a video game system or the like,A&N Corporation,fl:je_ln:san-2,Jeremy E.,San,[],b38b1284-16c7-11ed-9b5f-1234bde3cd05,"5004232,5214758,4471216,4450535,4523297,4644495,4386773,4865321,4492582,5231383,4442488,5190285,4462076,4757468,4799635,5208904,4862156,4471465,5016876,4824106",1992-01-30,0-0-0
5394524,1995-02-28,1992-11-30,US,-74.068001,41.927479,G06T1/20,utility,Method and apparatus for processing two graphics data streams in parallel,International Business Machines Corporation,fl:pa_ln:dinicola-1,Paul D.,DiNicola,[],06dca15c-16c8-11ed-9b5f-1234bde3cd05,"5045995,4987550,4737921,4550386,5136693",1992-11-30,0-0-0
5396343,1995-03-07,1991-03-14,US,-71.441307,42.309566,"G06T1/20,G06T9/00",utility,Image compresssion systems with optimized data access,NEC Electronics Corporation,fl:er_ln:hanselman-1,Eric G.,Hanselman,[],05e45d58-16c8-11ed-9b5f-1234bde3cd05,"4783698,4916525,4772956,5109226",1991-03-14,0-0-0
5404445,1995-04-04,1991-10-31,US,-117.291969,33.036987,G06T1/20,utility,External interface for a high performance graphics adapter allowing for graphics compatibility,"TOSHIBA AMERICA INFORMATION SYSTEMS, INC.",fl:jo_ln:matsumoto-3,John F.,Matsumoto,[],c1fc51de-16c7-11ed-9b5f-1234bde3cd05,"4905167,4958378",1991-10-31,0-0-0
5408606,1995-04-18,1993-01-07,US,-111.886803,40.759617,G06T1/20,utility,Computer graphics system with parallel processing using a switch structure,Evans & Sutherland Computer Corporation,fl:gl_ln:eckart-2,Glen A.,Eckart,[],c1bffd96-16c7-11ed-9b5f-1234bde3cd05,"4807183,4918626,4949280,4949280",1993-01-07,0-0-0
5421028,1995-05-30,1994-03-31,US,-105.066803,40.550854,"G06F9/3867,G06T1/20",utility,Processing commands and data in a common pipeline path in a high-speed computer graphics system,Hewlett-Packard Company,fl:ro_ln:swanson-32,Roger,Swanson,[],8f94a78e-16c8-11ed-9b5f-1234bde3cd05,"4967340,4841436,4791569,4837676,5138615,4794517,4398176,4996661,5053987,4996661,5053987",1994-03-31,0-0-0
5420941,1995-05-30,1993-09-17,US,-83.241356,42.522617,G06T1/20,utility,Parallel pipelined image processor,Unisys Corporation,fl:jo_ln:capo-1,Joseph M.,Capo,[],f7a39348-16c7-11ed-9b5f-1234bde3cd05,"4791676,4949390,3652791,4684997,4399467,5048104,4174514,4484346,4916659,4087788,4326258,4379283,4908719,4888812,4510618,4613986,4363036,5070531,4293920,4410965,4412252,5129092,4510619,5007100,4484349,4672186,4091424,4908874,4091424,4908874",1993-09-17,0-0-0
5422991,1995-06-06,1992-09-22,US,-74.002365,41.928783,G06T1/20,utility,Parallel vector generator and triangle generator incorporating same,International Business Machines Corporation,fl:ma_ln:fowler-9,Mark,Fowler,[],4ad8ca0f-16c8-11ed-9b5f-1234bde3cd05,"4827445,4967392,4590465,4873515,4805116,4885703,4580236,4908780,4648049,4878182,4945500,5136689,5305432,5305432",1992-09-22,0-0-0
5424981,1995-06-13,1994-08-23,JP,139.63678,35.444996,"G06F7/575,G09G2340/10,G06T1/20,G09G5/393,G06T1/60",utility,Memory device,"HITACHI, LTD.",fl:ko_ln:kimura-27,Koichi,Kimura,[],1d2251c8-16c8-11ed-9b5f-1234bde3cd05,"4868781,5089993,4685089,4531120,4231085,4613852,4672534,5193073,4550315,4653020,4729119,4742474,4302809,4559533,3787817,4719601,4237543,3976982,4435792,4639768,4467443,4641282,4616336,4450442,3665419,4484187,4317114,4484187,4317114",1994-08-23,0-0-0
5428804,1995-06-27,1992-12-18,US,-122.159851,37.444332,"G06F15/8015,G06F9/30134,G06T1/20",utility,Edge crossing circuitry for SIMD architecture,Xerox Corporation,fl:da_ln:davies-42,Daniel,Davies,[],a26e22db-16c8-11ed-9b5f-1234bde3cd05,"4831519,5173947,4850027,4742552,5325500,5222214,5146606,5173951,5129092,4314349",1992-12-18,0-0-0
5430885,1995-07-04,1991-10-22,JP,139.236206,35.565594,"G06F15/8007,G06F9/3877,G06T1/20,G06F15/17337,G06F9/3887,G06F9/30036",utility,Multi-processor system and co-processor used for the same,"HITACHI MAXELL, LTD.",fl:ke_ln:kaneko-3,Kenji,Kaneko,[],2210db2b-16c8-11ed-9b5f-1234bde3cd05,"4809169,3979728",1991-10-22,0-0-0
5430887,1995-07-04,1992-10-19,US,-73.939575,42.81424,"G06F15/803,G06F15/17381,G06T1/20",utility,Cube-like processor array architecture,General Electric Company,fl:me_ln:hsiao-5,Meng-Ling,Hsiao,[],05db232c-16c8-11ed-9b5f-1234bde3cd05,"5159690,5038386,5301104,5274832,5113523,5157785,5047917,5020059,5047917,5020059",1992-10-19,0-0-0
5434629,1995-07-18,1993-12-20,CA,-80.522293,43.465271,G06T1/20,utility,Real-time line scan processor,Focus Automation Systems Inc.,fl:er_ln:pearson-5,Eric C.,Pearson,[],39e04522-16c8-11ed-9b5f-1234bde3cd05,"4398176,4922337,5081575,4395700,4363104,4395697,4395698,4685144,4484346,5046190,5126845,4949172,4811210,4896211,5262968,4546444,5276803,5315700",1993-12-20,0-0-0
5434968,1995-07-18,1994-01-27,JP,139.759445,35.682838,G06T1/20,utility,Image data processing device with multi-processor,KUBOTA CORPORATION,fl:to_ln:kunii-4,Tosiyasu,Kunii,[],42f90495-16c8-11ed-9b5f-1234bde3cd05,"4752894,5113180,4985856,4737921,4737921",1994-01-27,0-0-0
5437011,1995-07-25,1994-02-04,US,-95.367706,29.758938,"G06T1/20,G09G5/393,G09G2340/10",utility,"Graphics computer system, a graphics system arrangement, a display system, a graphics processor and a method of processing graphic data",Texas Instruments Incorporated,fl:ka_ln:guttag-1,Karl M.,Guttag,[],4e49a0a0-16c8-11ed-9b5f-1234bde3cd05,"3952297,4653020,4779210,4649377,4862150,4613852,4680643,3471848,4197590,4761755,4320395,5095301,4636783,4636783",1994-02-04,0-0-0
5440685,1995-08-08,1993-08-10,JP,139.702789,35.530529,G06T1/20,utility,Apparatus and method for controlling manipulation and storage of image data,FUJITSU LIMITED,fl:sh_ln:takiyama-2,Shushi,Takiyama,[],1c0a3d5a-16c8-11ed-9b5f-1234bde3cd05,"4943987,5020003",1993-08-10,0-0-0
5444839,1995-08-22,1993-04-28,AU,145.512741,-37.929916,"G06T15/40,G06T1/20,G06T11/40,G09G5/42",utility,Object based graphics system for rasterizing images in real-time,Canon Kabushiki Kaisha,fl:ki_ln:silverbrook-1,Kia,Silverbrook,[],402d4ea6-16c8-11ed-9b5f-1234bde3cd05,"4837447,5305432,5313573,5313573",1993-04-28,0-0-0
5444550,1995-08-22,1992-11-25,JP,139.63678,35.444996,"H04N2201/0081,H04N1/3873,H04N2201/3292,H04N1/3333,H04N2201/0089,H04N1/32368,H04N1/32491,H04N1/32128,H04N2201/3287,H04N1/6011,H04N2201/33321,G06T1/20,H04N2201/33314,H04N1/38,H04N1/32358,H04N2201/33342",utility,Image processing apparatus,Canon Kabushiki Kaisha,fl:mi_ln:enokida-3,Miyuki,Enokida,[],1d2251c8-16c8-11ed-9b5f-1234bde3cd05,"4905185,5001574,4500919,4639771,4837635,4617596,4893258,4814893,4797943,4760458,4760463,4338636,4897735,4942479,4727435,5197122,4797748,4958237,4789900,4958237,4789900",1992-11-25,0-0-0
5448519,1995-09-05,1994-08-23,JP,139.63678,35.444996,"G06T1/60,G06T1/20,G09G2340/10,G06F7/575,G09G5/393",utility,Memory device,"HITACHI, LTD.",fl:ko_ln:kimura-27,Koichi,Kimura,[],1d2251c8-16c8-11ed-9b5f-1234bde3cd05,"3787817,4439829,5175838,4317114,4559533,4653020,4613852,4578773,4467443,4231085,4719601,4438493,4099231,4868781,4531120,3984670,4302809,4685089,4641282,4616336,4672534,4237543,4660181,3976982,4545068,4653030,4639768,3665419,4095268,4435792,4450442,4080651,4164787,3546680,4742474,4729119,4561072,4550315,4484187,4561072,4550315,4484187",1994-08-23,0-0-0
5448655,1995-09-05,1993-05-07,JP,140.437622,41.678436,G06T1/20,utility,Image data processor and image data processing method,"DAINIPPON SCREEN MFG. CO., LTD.",fl:ka_ln:yamaguchi-53,Katsuya,Yamaguchi,[],77adca10-16c8-11ed-9b5f-1234bde3cd05,"5010515,4800521,4945470,4839798,4850027,5179637,5179715,5179715",1993-05-07,0-0-0
5450342,1995-09-12,1992-03-20,JP,139.63678,35.444996,"G09G2340/10,G06F7/575,G09G5/393,G06T1/60,G06T1/20",utility,Memory device,"HITACHI, LTD.",fl:ko_ln:kimura-27,Koichi,Kimura,[],1d2251c8-16c8-11ed-9b5f-1234bde3cd05,"4685089,4559533,4231085,4099231,4450442,4868781,4317114,4467443,4613852,4616336,4578773,3787817,3976982,4439829,4672534,4660181,3546680,4237543,4095268,4531120,4742474,4641282,4438493,4484187,4719601,4545068,4653020,4435792,3984670,4080651,4639768,4561072,4550315,4164787,3984670,4080651,4639768,4561072,4550315,4164787",1992-03-20,0-0-0
5452057,1995-09-19,1993-05-18,JP,137.533234,34.946789,"H04N1/00352,H04N1/00482,H04N1/00397,G06T1/20,H04N1/00474,H04N1/00384,H04N1/00416,H04N1/00413,H04N1/00432,H04N1/32561,H04N1/00411",utility,Image processor permitting resetting operation while maintaining desired operation mode,Minolta Camera Kabushiki Kaisha,fl:sh_ln:imaizumi-3,Shoji,Imaizumi,[],8bf216be-16c8-11ed-9b5f-1234bde3cd05,"5214772,5200778,4958188,4821107,4922295",1993-05-18,0-0-0
5455899,1995-10-03,1992-12-31,US,-73.911209,41.596565,"G06T7/571,G06T2207/30148,G06T1/20,G06T2207/10012,G01R31/308,G06T2207/10148",utility,High speed image data processing circuit,International Business Machines Corporation,fl:do_ln:forslund-1,Donald C.,Forslund,[],07f9be6b-16c8-11ed-9b5f-1234bde3cd05,"5016173,4979221,4499597,4424588,4703513,5054926,4845356,5168554,5030008,4963018,4918636,4707610,4625330,4818110,4925302,4625330,4818110,4925302",1992-12-31,0-0-0
5457780,1995-10-10,1992-07-06,US,-73.988052,40.861736,"G06T3/40,H04N7/15,H04N19/42,H04N19/59,H04N19/00,H04N7/147,H04N19/51,H04L65/1101,H04M3/567,H04L65/80,H04N21/4382,H04N7/173,H04L12/1813,H04N21/42226,H04N21/2383,H04L65/752,H04L9/40,G06T1/20,H04L65/403,H04L65/764,H04N19/61,H04L69/04",utility,System for producing a video-instruction set utilizing a real-time frame differential bit map and microblock subimages,,fl:ve_ln:shaw-2,Venson,Shaw,[],0acebce6-16c8-11ed-9b5f-1234bde3cd05,"5025482,4541012,5144431,5057932,4849810,5091782,4375650,4920571,4963995,5307163,5307163",1992-07-06,0-0-0
5459823,1995-10-17,1991-07-03,AU,145.512741,-37.929916,"G06T11/001,G06T1/20,G06T11/60",utility,Graphics engine for true colour 2D graphics,Canon Kabushiki Kaisha,fl:ki_ln:silverbrook-1,Kia,Silverbrook,[],402d4ea6-16c8-11ed-9b5f-1234bde3cd05,"4827253,4954912,4823183,5003491,4965745,4811084,4328554,4589013,4504741,4504741",1991-07-03,0-0-0
5459835,1995-10-17,1992-12-28,GB,-0.329369,51.295506,G06T1/20,utility,Graphics rendering systems,"3D Labs Co., Ltd.",fl:ne_ln:trevett-1,Neil F.,Trevett,[],be615420-16c7-11ed-9b5f-1234bde3cd05,"4209832,5276788,4737921",1992-12-28,0-0-0
5467459,1995-11-14,1993-08-02,US,-122.330063,47.603832,"G06F12/0864,G06T1/20,G06F15/8015,G06T15/005,G06F12/0875",utility,Imaging and graphics processing system,The Board of Regents of the University of Washington,fl:th_ln:alexander-6,Thomas,Alexander,[],5836da24-16c8-11ed-9b5f-1234bde3cd05,"4819152,4914577,4730251,5008852,5161247,4920504,4885699,4300192,5047958,4484265",1993-08-02,0-0-0
5471579,1995-11-28,1993-11-05,JP,139.236206,35.565594,G06T1/20,utility,Graphics system using parallel processors and processing method of the same,"HITACHI, LTD.",fl:sh_ln:kimura-66,Shinji,Kimura,[],2210db2b-16c8-11ed-9b5f-1234bde3cd05,4649498,1993-11-05,0-0-0
5473750,1995-12-05,1993-11-26,JP,139.702789,35.530529,"G06F15/17,G06T1/20",utility,Three-dimensional computer graphic apparatus with designated processing order in pipeline processing,FUJITSU LIMITED,fl:hi_ln:hattori-26,Hiroshi,Hattori,[],1c0a3d5a-16c8-11ed-9b5f-1234bde3cd05,"4876644,5392393",1993-11-26,0-0-0
5475636,1995-12-12,1994-08-23,JP,139.63678,35.444996,"G09G5/393,G09G2340/10,G06T1/60,G06F7/575,G06T1/20",utility,Memory device,"HITACHI, LTD.",fl:ko_ln:kimura-27,Koichi,Kimura,[],1d2251c8-16c8-11ed-9b5f-1234bde3cd05,"4531120,4439829,4545068,4095268,4639768,4080651,4729119,4613852,4672534,4559533,4719601,3984670,4317114,4578773,4450442,4237543,4561072,4438493,4653020,4550315,4616336,4484187,3546680,3665419,4660181,3787817,4742474,4641282,4435792,4231085,4467443,4302809,4903236,4164787,4685089,4868781,4099231,5134589,3976982,4685089,4868781,4099231,5134589,3976982",1994-08-23,0-0-0
5475851,1995-12-12,1993-09-22,US,-97.743698,30.271126,"G06F11/3664,G06F3/0481,G01R31/31912,G06F9/4494,G06T19/00,Y10S715/967,G06F30/20,G06F8/34,G06F3/04817,G06T1/20,G06F11/3632,G06T2200/24",utility,Method and apparatus for improved local and global variable capabilities in a graphical data flow program,National Instruments Corporation,fl:je_ln:kodosky-1,Jeffrey L.,Kodosky,[],1811f8b9-16c8-11ed-9b5f-1234bde3cd05,"5168441,4849880",1993-09-22,0-0-0
5477486,1995-12-19,1995-03-22,JP,139.63678,35.444996,"G09G5/393,G06T1/60,G06F7/575,G09G2340/10,G06T1/20",utility,Memory device,"HITACHI, LTD.",fl:ko_ln:kimura-27,Koichi,Kimura,[],1d2251c8-16c8-11ed-9b5f-1234bde3cd05,"4660181,4439829,4545068,4164787,4561072,4438493,4080651,4095268,4099231,4435792,3546680,5396468,4578773",1995-03-22,0-0-0
5481727,1996-01-02,1993-11-15,JP,139.63678,35.444996,"H04N19/98,G06T1/20",utility,Bus control for a plurality of digital signal processors connected to a common memory,"MITSUBISHI HEAVY INDUSTRIES, LTD.",fl:ke_ln:asano-6,Kenichi,Asano,[],1d2251c8-16c8-11ed-9b5f-1234bde3cd05,"4633394,4257095,5127089,5142682,4453214,5121487,4752872,4320467,4626843,4620278,5088024,5396603,5129090,4837682,4458314,4419724,4320457,5073871,5179709,4818985,4627018,5193194,5193194",1993-11-15,0-0-0
5481740,1996-01-02,1993-09-22,US,-97.806816,30.287704,"G06F30/20,G06T19/00,G06F11/3632,G06T2200/24,Y10S715/967,G06F8/34,G06F2111/12,G06T1/20,G01R31/31912,G06F11/3664,G06F3/04817,G06F9/4494,G06F11/3636,G06F3/0481",utility,Method and apparatus for providing autoprobe features in a graphical data flow diagram,National Instruments Corporation,fl:je_ln:kodosky-1,Jeffrey L.,Kodosky,[],7ae83457-16c8-11ed-9b5f-1234bde3cd05,"5136705,4868785",1993-09-22,0-0-0
5481741,1996-01-02,1993-09-22,US,-97.743698,30.271126,"G01R31/31912,Y10S715/97,G06F9/4494,G06F11/3632,G06F3/04817,G06F30/20,G06F3/0481,G06F8/34,Y10S715/967,G06T1/20,G06F11/3664,G06T19/00,G06T2200/24",utility,Method and apparatus for providing attribute nodes in a graphical data flow environment,National Instruments Corporation,fl:gr_ln:mckaskle-2,Greg,McKaskle,[],1811f8b9-16c8-11ed-9b5f-1234bde3cd05,"4849880,5168441",1993-09-22,0-0-0
5483627,1996-01-09,1993-04-28,AU,151.208267,-33.869843,G06T1/20,utility,Preprocessing pipeline for real-time object based graphics systems,Canon Kabushiki Kaisha,fl:ki_ln:silverbrook-1,Kia,Silverbrook,[],bab1d2db-16c7-11ed-9b5f-1234bde3cd05,"5255359,5261029,4885703,5278948,5301267,4675830",1993-04-28,0-0-0
5485603,1996-01-16,1995-04-17,NL,5.478633,51.439262,G06T1/20,utility,Pipeline system which pauses processing of already input data during dead time intervals at the system input,U.S. Philips Corporation,fl:ge_ln:nijholt-1,Geert,Nijholt,[],789bce50-16c8-11ed-9b5f-1234bde3cd05,"4916659,4965717,5046190",1995-04-17,0-0-0
5485559,1996-01-16,1991-06-10,JP,139.702789,35.530529,G06T1/20,utility,Parallel graphics processor with graphics command distributor and command sequencing method,"HITACHI, LTD.",fl:to_ln:sakaibara-1,Toru,Sakaibara,[],1c0a3d5a-16c8-11ed-9b5f-1234bde3cd05,"4449201,4737921,4967392,5010515",1991-06-10,0-0-0
5485557,1996-01-16,1994-04-01,JP,139.759445,35.682838,"G06T9/001,G06T1/20,G06T11/00,G06T9/00",utility,Image processing apparatus,Canon Kabushiki Kaisha,fl:ma_ln:sato-77,Mamoru,Sato,[],42f90495-16c8-11ed-9b5f-1234bde3cd05,"4636783,5063375,4580134,4593407,4633503,4134128,4533910,4809350,4661987,5121470,3945019,4929085,4580231,4628344,4736307,4360876,4719503,4415922,4743959,4850028,4281312,4663615,4245321,5041992,4797944,4281312,4663615,4245321,5041992,4797944",1994-04-01,0-0-0
5485535,1996-01-16,1995-01-13,JP,139.759445,35.682838,"H04N2201/0086,H04N1/32566,H04N2201/0082,H04N2201/0081,G06T1/20,H04N1/32561,H04N1/00915",utility,Data processing system comprising a plurality of data processing apparatus conducting data communications through a bus line,Canon Kabushiki Kaisha,fl:sh_ln:arimoto-3,Shinobu,Arimoto,[],42f90495-16c8-11ed-9b5f-1234bde3cd05,"4602333,4573083,4453267,4445137,4426731,4525858,3751582,4445185,4494150,4442543,4571633,4672679,4441208,4363104,4441208,4363104",1995-01-13,0-0-0
5493415,1996-02-20,1993-12-07,JP,139.702789,35.530529,"H04N2201/0089,G06T1/20,H04N1/32128,H04N2201/3287,H04N2201/33314,H04N1/32368,H04N1/6011,H04N1/3333,H04N2201/0081,H04N2201/3292,H04N1/32491,H04N1/38,H04N2201/33342,H04N1/32358,H04N2201/33321,H04N1/3873",utility,Imgae processing system,Canon Kabushiki Kaisha,fl:yo_ln:mita-9,Yoshinobu,Mita,[],1c0a3d5a-16c8-11ed-9b5f-1234bde3cd05,"4338636,4727435,4797748,4760458,4942479,5001574,4893258,4797943,4958237,4897735,4639771,5191647,4500919,4837635,4814893,4760463,4789900,4617596,4760463,4789900,4617596",1993-12-07,0-0-0
5493528,1996-02-20,1995-05-05,JP,139.63678,35.444996,"G06T1/20,G06F7/575,G09G2340/10,G06T1/60,G09G5/393",utility,Memory device,"HITACHI, LTD.",fl:ko_ln:kimura-27,Koichi,Kimura,[],1d2251c8-16c8-11ed-9b5f-1234bde3cd05,"4545068,4099231,3976982,4578773,4435792,4550315,4742474,4639768,4660181,4231085,4616336,3787817,4559533,4531120,3546680,4450442,4164787,4095268,4438493,4613852,4484187,4302809,4641282,4903236,4672534,4439829,4868781,4653030,3665419,4237543,3984670,4467443,4080651,4719601,4729119,4317114,4653020,5134589,4561072,4685089,4653020,5134589,4561072,4685089",1995-05-05,0-0-0
5493643,1996-02-20,1994-05-03,US,-122.158897,47.754585,"G09B9/003,G06T1/20,G06T15/005,G09B9/301",utility,Image generator architecture employing tri-level fixed interleave processing and distribution buses,Loral Aerospace Corp.,fl:br_ln:soderberg-2,Brian T.,Soderberg,[],9d73ed82-16c8-11ed-9b5f-1234bde3cd05,"5394524,5317689,5371896,5293480",1994-05-03,0-0-0
5499110,1996-03-12,1993-02-25,JP,139.759445,35.682838,G06T1/20,utility,Image processing apparatus for synthesizing different input data without using hard copy,"RICOH COMPANY, LTD.",fl:ta_ln:hosogai-1,Takashi,Hosogai,[],42f90495-16c8-11ed-9b5f-1234bde3cd05,"5267333,4538183,5191440,5191440",1993-02-25,0-0-0
5499222,1996-03-12,1995-05-05,JP,139.63678,35.444996,"G06T1/20,G06T1/60,G09G2340/10,G09G5/393,G06F7/575",utility,Memory device,"HITACHI, LTD.",fl:ko_ln:kimura-27,Koichi,Kimura,[],1d2251c8-16c8-11ed-9b5f-1234bde3cd05,"4561072,4653020,4317114,5134589,4903236,4237543,4559533,3976982,4729119,4231085,4095268,4438493,4742474,4868781,4164787,4719601,3787817,4616336,4099231,4484187,4439829,5424981,4080651,4467443,4531120,4639768,4641282,4672534,4653030,3665419,4613852,4302809,4435792,4545068,4660181,4450442,4550315,4685089,4578773,3984670,3546680,4685089,4578773,3984670,3546680",1995-05-05,0-0-0
5499375,1996-03-12,1993-08-09,JP,139.759445,35.682838,"G09G5/395,G09G5/02,G06T1/20,G06F15/8015",utility,Feedback register configuration for a synchronous vector processor employing delayed and non-delayed algorithms,Texas Instruments Incorporated,fl:hi_ln:miyaguchi-2,Hiroshi,Miyaguchi,[],42f90495-16c8-11ed-9b5f-1234bde3cd05,"5093722,4665556,5155852,5210705,4850027",1993-08-09,0-0-0
5502802,1996-03-26,1995-07-14,IR,47.375359,33.138508,G06T1/20,utility,Polygonal image-drawing processor,"RICOH COMPANY, LTD.",fl:na_ln:shiraishi-6,Naoto,Shiraishi,[],846db3e0-16c8-11ed-9b5f-1234bde3cd05,"5133049,5115402,4852020,5179645,5303340,5237649,4829295",1995-07-14,0-0-0
5507026,1996-04-09,1994-09-06,JP,140.650467,36.599121,"G06F12/10,G06T1/20",utility,"Address-translatable graphic processor, data processor and drawing method with employment of the same","HITACHI, LTD.",fl:ta_ln:fukushima-16,Tadashi,Fukushima,[],b6d74843-16c7-11ed-9b5f-1234bde3cd05,"4791580,5369744,4737909,4860192",1994-09-06,0-0-0
5517611,1996-05-14,1995-07-24,US,-122.116577,37.379063,"G06F9/30167,G06F9/30,G06F9/3879,G06T1/20",utility,Floating-point processor for a high performance three dimensional graphics accelerator,Sun Microsystems Inc.,fl:mi_ln:deering-3,Michael F.,Deering,[],b86c5343-16c7-11ed-9b5f-1234bde3cd05,"5307449,4866637,5159665,5136664,4107773,5317682",1995-07-24,0-0-0
5519449,1996-05-21,1992-09-17,JP,135.553955,34.834007,"G09G5/39,G09G5/399,G09G5/36,H04N19/42,H04N5/2624,G09G2360/123,G09G2340/125,G06T1/20,H04N19/61",utility,Image composing and displaying method and apparatus for displaying a composite image of video signals and computer graphics,"HITACHI, LTD.",fl:no_ln:yanai-4,Norifumi,Yanai,[],8a6de2aa-16c8-11ed-9b5f-1234bde3cd05,"4876600,5124692,5214511,4485402,4667221,4646151",1992-09-17,0-0-0
5522060,1996-05-28,1994-10-28,JP,139.575989,35.634022,G06T1/20,utility,Multiprocessor memory managing system and method for executing sequentially renewed instructions by locking and alternately reading slave memories,International Business Machines Corporation,fl:ke_ln:kawase-2,Kei,Kawase,[],8f5d372a-16c8-11ed-9b5f-1234bde3cd05,"5182797,5249265,5179665",1994-10-28,0-0-0
5522082,1996-05-28,1992-10-23,US,-95.367706,29.758938,"G06T1/20,G06F9/30",utility,"Graphics display processor, a graphics display system and a method of processing graphics data with control signals connected to a central processing unit and graphics circuits",Texas Instruments Incorporated,fl:ka_ln:guttag-1,Karl M.,Guttag,[],4e49a0a0-16c8-11ed-9b5f-1234bde3cd05,"4116444,4510568,4386410,4608656,4471464,4626839,4087852,4168488,4398246,4491834,4262302,4644503,4570158,3976982,4528636,4243984,4609917,4467412,4961072,4247843,4491907,4860218,4779210,4517654,4799146,4636945,4862150,4636945,4862150",1992-10-23,0-0-0
5523973,1996-06-04,1995-06-02,JP,139.63678,35.444996,"G06T1/60,G09G2340/10,G09G5/393,G06F7/575,G06T1/20",utility,Memory device,"HITACHI, LTD.",fl:ko_ln:kimura-27,Koichi,Kimura,[],1d2251c8-16c8-11ed-9b5f-1234bde3cd05,"4531120,3984670,4672534,4237543,4164787,4435792,4578773,4231085,4439829,4616336,4080651,4561072,4467443,4550315,5424981,3976982,4559533,4903236,4438493,4719601,4302809,3787817,4868781,4653020,5134589,4729119,4685089,4639768,4450442,4484187,3546680,4095268,4099231,4545068,4660181,3665419,4613852,4317114,4641282,4742474,4613852,4317114,4641282,4742474",1995-06-02,0-0-0
5533185,1996-07-02,1993-10-28,US,-121.974678,37.226612,"G06F9/30043,G06F9/30141,G06F9/30109,G06T1/20",utility,Pixel modification unit for use as a functional unit in a superscalar microprocessor,Seiko Epson Corporation,fl:de_ln:lentz-1,Derek J.,Lentz,[],c41f88fa-16c7-11ed-9b5f-1234bde3cd05,"4689738,4874164,4648045,5056041,4941190,5056041,4941190",1993-10-28,0-0-0
5546532,1996-08-13,1993-02-01,GB,-0.306262,51.409626,"G06F9/30032,G06T1/20",utility,Data-array processing system,"3D Labs Co., Ltd.",fl:ne_ln:trevett-1,Neil F.,Trevett,[],9d8004d4-16c8-11ed-9b5f-1234bde3cd05,"4954966,4881190,4972264,5111385",1993-02-01,0-0-0
5553170,1996-09-03,1994-11-14,JP,139.443497,35.637184,G06T1/20,utility,High speed image processing system having a preparation portion and a converting portion generating a processed image based on the preparation portion,EZEL Inc.,fl:ry_ln:kumagai-5,Ryohei,Kumagai,[],932fb7b0-16c8-11ed-9b5f-1234bde3cd05,"4860375,4747081,4631691,4484187,4648045,4742474,4649378,4591897,4749990,4434503,4768029,4136332,4513438,4933979,4533952,4604614,4658247,4949391,5222159,4459676,4736443,4949392,4716546,4569079,4817175,4488174,4574357,4648050,4718091,4648049,4748442,4727497,4725892,4364037,4580242,5283866,4663619,4727497,4725892,4364037,4580242,5283866,4663619",1994-11-14,0-0-0
5557734,1996-09-17,1994-06-17,US,-83.731224,42.268158,G06T1/20,utility,"Cache burst architecture for parallel processing, such as for image processing","Applied Intelligent Systems, Inc.",fl:st_ln:wilson-37,Stephen S.,Wilson,[],4c7a9f37-16c8-11ed-9b5f-1234bde3cd05,"4612628,4829585,4635292,3582899,4484346,4621339,4739474,5450603,4731724,4541116,4546428,4858163,3970993,5268856,4665556,4780842,4872133,4685144,4215401,4550437,4763294,4524455,4736288,5410649,4525797,5129092,4580215,5428804,4866651,4742552,4174514,4314349,3537074,4787057,3537074,4787057",1994-06-17,0-0-0
5566290,1996-10-15,1993-04-28,AU,151.208267,-33.869843,G06T1/20,utility,Multi-media device,Canon Information Systems Research Australia Pty. Ltd.,fl:ki_ln:silverbrook-1,Kia,Silverbrook,[],bab1d2db-16c7-11ed-9b5f-1234bde3cd05,"5355450,5274758,5065345,5065345",1993-04-28,0-0-0
5566003,1996-10-15,1993-01-19,JP,139.63678,35.444996,"H04N2201/33357,H04N2201/33378,G06T1/20,H04N1/00238,H04N2201/33321,H04N1/00236,H04N1/33323,H04N2201/33328,H04N1/33392,H04N1/411",utility,Image processing system in which the transmitter and receiver have different data resolutions and data is transmitted at the receiver resolution,Canon Kabushiki Kaisha,fl:te_ln:hara-14,Teruya,Hara,[],1d2251c8-16c8-11ed-9b5f-1234bde3cd05,"5309521,5073960,5231677,5235436,5317679,5304988,4953114,4668995,5023919,5270837,4296405,5093870,5296939,5050222,5073959,4307377,5296939,5050222,5073959,4307377",1993-01-19,0-0-0
5574847,1996-11-12,1993-09-29,US,-111.886803,40.759617,G06T1/20,utility,Computer graphics parallel system with temporal priority,Evans & Sutherland Computer Corporation,fl:gl_ln:eckart-2,Glen A.,Eckart,[],c1bffd96-16c7-11ed-9b5f-1234bde3cd05,"4918626,5315699,5459835,4949280,5325485,5465368",1993-09-29,0-0-0
5592649,1997-01-07,1994-07-26,JP,139.63678,35.444996,"G06F7/575,G06T1/60,G09G2340/10,G09G5/393,G06T1/20",utility,RAM control method and apparatus for presetting RAM access modes,"HITACHI, LTD.",fl:ko_ln:kimura-27,Koichi,Kimura,[],1d2251c8-16c8-11ed-9b5f-1234bde3cd05,"4578773,4317114,4545068,4164787,4095268,4561072,4485461,4099231,3665419,4729119,3984670,4450442,4742474,4550315,4439829,4484187,4438493,4080651,4435792,4639768,3546680,4531120,4653020,4302809,4631700,4616336,4559533,4660181,4559533,4660181",1994-07-26,0-0-0
5596693,1997-01-21,1995-07-31,US,-122.241638,37.765209,G06T1/20,utility,Method for controlling a spryte rendering processor,3DO Company,fl:da_ln:needle-2,David L.,Needle,[],c3123a8f-16c7-11ed-9b5f-1234bde3cd05,"4879676,5073964,4952051,4918434,5235677,5101446,4045798,4847608,4345244,4918436,4905168,4772882,5206628,4988892,4817149,4939672,5121191,5113490,5081645,5068911,4583117,5070479,4471465,4982342,4967268,4974187,5014134,4969647,4580782,5091720,4951229,4951038,5155768,5113285,4771279,4847604,4931751,4827249,4521014,4561659,4731848,4523226,4857901,4418993,5131080,5046097,4672541,4792850,4951232,4472037,4243984,4960384,4635516,4754270,4580134,4521770,5091717,4674051,4562463,5175815,4953073,4149184,4572509,5051737,3900886,4979033,5027270,4884876,4824106,4959779,5125671,5063441,4864289,4653013,4951230,4908858,5113511,4653013,4951230,4908858,5113511",1995-07-31,0-0-0
5596767,1997-01-21,1995-06-07,US,-95.367706,29.758938,"G06T1/20,G06F9/30",utility,Programmable data processing system and apparatus for executing both general purpose instructions and special purpose graphic instructions,Texas Instruments Incorporated,fl:ka_ln:guttag-1,Karl M.,Guttag,[],4e49a0a0-16c8-11ed-9b5f-1234bde3cd05,"5437011,5434969,4862150,4799146,4873652",1995-06-07,0-0-0
5600844,1997-02-04,1993-04-05,US,-73.988052,40.861736,"H04N2201/0084,H04L69/32,G06F9/4887,H04N19/587,H04N2201/0086,G06T1/20,H04N1/00204,H04N2201/0087,H04N1/32502,G06T1/60,G09G5/393,H04L9/40,H04N19/12,H04N2201/0082,G09G2320/103,H04N19/85,G09G5/006,H04N19/132,H04N1/00392,H04N19/436,H04N21/44227,H04N21/4402,H04N21/4363,G06F9/465,H04N19/176,H04N2201/0081,G09G5/39,G09G2340/02,H04N21/4621,H04N21/426,H04N19/142,H04N2201/0089,G09G5/363,H04N19/423,H04N19/107,H04N19/61",utility,Single chip integrated circuit system architecture for document installation set computing,,fl:ve_ln:shaw-2,Venson,Shaw,[],0acebce6-16c8-11ed-9b5f-1234bde3cd05,"5339434,4541012,5091782,5261080,5369778,4849810,5057932,5457780,5457780",1993-04-05,0-0-0
5603013,1997-02-11,1995-06-07,JP,140.118118,35.609982,"G09G5/02,G06F15/8015,G06T1/20,G09G5/395",utility,Method and apparatus for noise reduction of cyclic signal by selecting majority logic state of corresponding portions of plural cycles,Texas Instruments Incorporated,fl:ka_ln:ohara-12,Kazuhiro,Ohara,[],6de5356f-16c8-11ed-9b5f-1234bde3cd05,"5185794,4227175,5119197,4670880,4375101,5091938,5384599,5235417,5241548,3622765,5166976,4107736,4388729,5267312,5406627,5225907,4464674,5225907,4464674",1995-06-07,0-0-0
5606428,1997-02-25,1994-06-16,US,-71.441307,42.309566,"G06T1/20,G06T9/00",utility,Image compression systems with optimized data access,NEC Electronics Corporation,fl:er_ln:hanselman-1,Eric G.,Hanselman,[],05e45d58-16c8-11ed-9b5f-1234bde3cd05,"4999715,4800431,5029019,4916525,5029018,4783698,4772956,4942479,5109226",1994-06-16,0-0-0
5606707,1997-02-25,1994-09-30,US,-81.379036,28.54211,"G06F9/3877,G06T1/20",utility,Real-time image processor,LOCKHEED MARTIN CORPORATION,fl:ma_ln:tomassi-1,Mark Steven,Tomassi,[],aa1acfad-16c8-11ed-9b5f-1234bde3cd05,"5136662,4809347,5210836,5239387,5125044,4718091,4445137,4739401,4901360,5353061,5179530,4734782,5138459,4656507,5253308",1994-09-30,0-0-0
5615155,1997-03-25,1996-01-04,JP,139.63678,35.444996,"G09G5/393,G06T1/60,G09G2340/10,G06T1/20,G06F7/575",utility,Memory device,"HITACHI, LTD.",fl:ko_ln:kimura-27,Koichi,Kimura,[],1d2251c8-16c8-11ed-9b5f-1234bde3cd05,"5523973,5523973",1996-01-04,0-0-0
5617360,1997-04-01,1996-01-18,JP,139.63678,35.444996,"G09G2340/10,G06T1/60,G06F7/575,G09G5/393,G06T1/20",utility,Memory device,"HITACHI, LTD.",fl:ko_ln:kimura-27,Koichi,Kimura,[],1d2251c8-16c8-11ed-9b5f-1234bde3cd05,5523973,1996-01-18,0-0-0
5625768,1997-04-29,1994-09-01,US,-97.743698,30.271126,"G06F9/3877,G06F9/383,G06T1/20,G06F9/3879,G06T15/80,G06F9/3867",utility,Method and apparatus for correcting errors in pixel characteristics when interpolating polygons into a pixel grid,"Cirrus Logic, Inc.",fl:th_ln:dye-2,Thomas A.,Dye,[],1811f8b9-16c8-11ed-9b5f-1234bde3cd05,5420972,1994-09-01,0-0-0
5631668,1997-05-20,1995-04-28,JP,140.650467,36.599121,"G09G5/395,G06T11/203,G06T1/20,G09G5/39,G06T1/60,G06T17/00,G09G2360/127,G09G5/399,G09G5/20,G09G5/363,G09G5/024,G09G5/393,G09G5/36",utility,Graphic pattern processing apparatus,"HITACHI, LTD.",fl:ko_ln:katsura-2,Koyo,Katsura,[],b6d74843-16c7-11ed-9b5f-1234bde3cd05,"5043713,5300947,4862150,5332995,5332995",1995-04-28,0-0-0
5631671,1997-05-20,1993-08-11,JP,140.650467,36.599121,"G09G5/393,G09G5/36,G06T11/203,G06T17/00,G09G5/363,G09G5/024,G09G5/39,G09G5/399,G06T1/60,G09G5/395,G06T1/20,G09G2360/127,G09G5/20",utility,Graphic pattern processing apparatus for processing pixels havings a number of bits which may be selected,"HITACHI, LTD.",fl:ko_ln:katsura-2,Koyo,Katsura,[],b6d74843-16c7-11ed-9b5f-1234bde3cd05,"5043713,5300947,4862150,5332995,4862150,5332995",1993-08-11,0-0-0
5638095,1997-06-10,1995-04-28,JP,140.650467,36.599121,"G09G5/393,G09G5/39,G06T17/00,G06T11/203,G09G2360/127,G09G5/399,G09G5/024,G09G5/36,G09G5/363,G06T1/60,G09G5/395,G06T1/20,G09G5/20",utility,Graphic pattern processing apparatus having a parallel to serial conversion unit,"Hitachi Engineering Co., Ltd.",fl:ko_ln:katsura-2,Koyo,Katsura,[],b6d74843-16c7-11ed-9b5f-1234bde3cd05,"4862150,5300947,5043713,5332995,4509043",1995-04-28,0-0-0
5642444,1997-06-24,1994-07-28,US,-80.843079,35.227207,"G06T1/20,G06V10/751",utility,Specialized image processing system architecture and method for image data arrays,,fl:m._ln:mostafavi-1,M. Taghi,Mostafavi,[],f1923f32-16c7-11ed-9b5f-1234bde3cd05,"4864629,4489435,4949390,4481593,5014327,4860375,5046190,3069654,4190669,4622632,4541114,4489434,4592086,4524455,4592086,4524455",1994-07-28,0-0-0
5646745,1997-07-08,1993-07-12,JP,135.50145,34.693756,"G06T1/20,H04N1/40",utility,Image data processing apparatus having line memory,"Mita Industrial Co., Ltd.",fl:te_ln:kajitani-2,Tetsuji,Kajitani,[],8d09bc30-16c8-11ed-9b5f-1234bde3cd05,"5052046,5299034,5028991,4509530,5157518,5381246,5245678,5307426,5224213",1993-07-12,0-0-0
5649172,1997-07-15,1995-04-28,TW,120.990974,24.765448,G06T1/20,utility,Color mixing device using a high speed image register,UNITED MICROELECTRONICS CORP.,fl:al_ln:tang-4,Alex,Tang,[],90d48008-16c8-11ed-9b5f-1234bde3cd05,"5179639,4893114,5293483,5170445,4924432,5036475",1995-04-28,0-0-0
5649173,1997-07-15,1995-03-06,US,-121.974678,37.226612,"G06T15/005,G06T1/20",utility,Hardware architecture for image generation and manipulation,Seiko Epson Corporation,fl:de_ln:lentz-1,Derek J.,Lentz,[],c41f88fa-16c7-11ed-9b5f-1234bde3cd05,"4729098,5361386,5278949,5287438,5222204,5097427,5012163,5274760,5155822,5367615,5146557,5280568,5191642,5224208,4888713,5179638,5187754,4879668,5345541,4727365,4905164,5307450,5293480,5230039,4545068,5175806,5369744,4586038,4343037,5222205,5369736,5299309,5295199,5333245,5299309,5295199,5333245",1995-03-06,0-0-0
5652909,1997-07-29,1995-06-07,US,-97.743698,30.271126,"G06F2111/12,G06F3/0481,Y10S715/967,G06T1/20,G06F30/20,G06F9/4494,G06F11/3632,G06T2200/24,G06F8/34,G06F3/04817,G01R31/31912,G06T19/00,G06F11/3636,G06F11/3664",utility,Method and apparatus for providing autoprobe features in a graphical data flow diagram,National Instruments Corporation,fl:je_ln:kodosky-1,Jeffrey L.,Kodosky,[],1811f8b9-16c8-11ed-9b5f-1234bde3cd05,5334970,1995-06-07,0-0-0
5657248,1997-08-12,1995-06-02,JP,140.650467,36.599121,"G06T1/20,G09G5/00,G09G2360/126,G09G5/363,G09G2340/02",utility,Image display apparatus,"HITACHI, LTD.",fl:na_ln:hamada-8,Nagaharu,Hamada,[],b6d74843-16c7-11ed-9b5f-1234bde3cd05,"4821108,4931957,4954969,4606066,4463380",1995-06-02,0-0-0
5657045,1997-08-12,1995-04-28,JP,140.650467,36.599121,"G06T1/60,G06T1/20,G09G5/39,G09G5/36,G06T11/203,G06T17/00,G09G2360/127,G09G5/024,G09G5/399,G09G5/20,G09G5/363,G09G5/395,G09G5/393",utility,Graphic pattern processing apparatus,"HITACHI, LTD.",fl:ko_ln:katsura-2,Koyo,Katsura,[],b6d74843-16c7-11ed-9b5f-1234bde3cd05,"4862150,5332995,5300947,5043713,5043713",1995-04-28,0-0-0
5659776,1997-08-19,1993-08-20,FR,7.10905,43.583599,"H03H17/06,H04N7/0132,H04N7/012,H04N5/14,G06T1/20",utility,"Method and apparatus for inputting data to a single instruction, multiple data processor used in a television receiving system",Texas Instruments Incorporated,fl:ge_ln:chauvel-1,Gerard,Chauvel,[],46556b28-16c8-11ed-9b5f-1234bde3cd05,"4065808,5001626,4860201,4550336,5129092,4773038,5327541,4860248,4701916,4558347,4876641,4992933,5410727,4910667,5253308,4901224,4972314,4949280,4727474,4949280,4727474",1993-08-20,0-0-0
5664161,1997-09-02,1995-06-07,JP,140.650467,36.599121,"G06T1/20,G06F12/10",utility,"Address-translatable graphic processor, data processor and drawing method with employment of the same","HITACHI, LTD.",fl:ta_ln:fukushima-16,Tadashi,Fukushima,[],b6d74843-16c7-11ed-9b5f-1234bde3cd05,"4791580,4737909,4860192,5369744",1995-06-07,0-0-0
5664162,1997-09-02,1994-11-03,US,-97.743698,30.271126,"G06F9/3877,G06F9/383,G06F9/3879,G06T15/80,G06T1/20,G06F9/3867",utility,Graphics accelerator with dual memory controllers,"Cirrus Logic, Inc.",fl:th_ln:dye-2,Thomas A.,Dye,[],1811f8b9-16c8-11ed-9b5f-1234bde3cd05,"5560030,5522027,5522082,5522082",1994-11-03,0-0-0
5666520,1997-09-09,1994-03-21,JP,140.650467,36.599121,"G06T11/203,G06T1/20",utility,Graphics display system including graphics processor having a register storing a series of vertex data relating to a polygonal line,"HITACHI, LTD.",fl:ry_ln:fujita-11,Ryo,Fujita,[],b6d74843-16c7-11ed-9b5f-1234bde3cd05,"5420972,5163127,3735389",1994-03-21,0-0-0
5673422,1997-09-30,1995-01-23,JP,134.860046,34.929108,"G06T1/20,G09G5/393",utility,Semiconductor integrated circuit for processing image data,"MITSUBISHI HEAVY INDUSTRIES, LTD.",fl:hi_ln:kawai-15,Hiroyuki,Kawai,[],9defebc5-16c8-11ed-9b5f-1234bde3cd05,"5185856,4718091,5517603,5465224,5517603,5465224",1995-01-23,0-0-0
5675773,1997-10-07,1995-12-21,US,-97.743698,30.271126,"G06F12/0875,G06T1/20",utility,Graphics display system with a low level hardware dependent graphics library,"Cirrus Logic, Inc.",fl:go_ln:devic-1,Goran,Devic,[],1811f8b9-16c8-11ed-9b5f-1234bde3cd05,5561752,1995-12-21,0-0-0
5677644,1997-10-14,1995-06-06,AU,145.512741,-37.929916,"G06T11/60,G06T1/20,G06T11/001",utility,Ramp generating structure for producing color graphics,Canon Information Systems Research Australia Pty. Ltd.,fl:ki_ln:silverbrook-1,Kia,Silverbrook,[],402d4ea6-16c8-11ed-9b5f-1234bde3cd05,"3689914,5003491,3487214,4827253,3628061,4657657,4504741,4811084,4965745,4589013,5039872,4851709,4954912,4823183,3456554,3919649,3810039,4328554,3919649,3810039,4328554",1995-06-06,0-0-0
5678036,1997-10-14,1995-05-31,TW,120.990974,24.765448,G06T1/20,utility,Graphics system and method for minimizing idle time of a controller of the graphics system,Silicon Integrated Systems Corp.,fl:hu_ln:lin-161,Hung-Ming,Lin,[],90d48008-16c8-11ed-9b5f-1234bde3cd05,"5522028,5511165",1995-05-31,0-0-0
5680175,1997-10-21,1995-08-09,JP,135.553955,34.834007,"G06T1/20,G09G5/39,G09G5/399,H04N5/2624,H04N19/61,G09G2360/123,H04N19/42,G09G2340/125,G09G5/36",utility,Video signal conversion apparatus having a common frame memory for video signals having different synchronizing signals,"HITACHI, LTD.",fl:no_ln:yanai-4,Norifumi,Yanai,[],8a6de2aa-16c8-11ed-9b5f-1234bde3cd05,4485402,1995-08-09,0-0-0
5689695,1997-11-18,1995-06-07,US,-95.367706,29.758938,"G06F9/30192,G06T1/20,G06F9/30094,G06F9/30189,G06F15/7857,G06F9/3842,G06F9/30072,G06F9/34",utility,Conditional processor operation based upon result of two consecutive prior processor operations,Texas Instruments Incorporated,fl:ch_ln:read-6,Christopher Jensen,Read,[],4e49a0a0-16c8-11ed-9b5f-1234bde3cd05,"5146592,4589087,5274777,4713748,5008807,5193167,5125092",1995-06-07,0-0-0
5689300,1997-11-18,1995-07-31,JP,139.66539,35.273056,"H04Q2213/337,H04Q2213/13175,H04Q2213/13091,H04Q2213/13337,G06T9/00,H04Q2213/13179,H04Q11/0457,H04Q2213/13106,H04N7/142,H04Q2213/204,H04N1/42,H04Q2213/13096,H04N7/148,H04Q2213/13204,H04N7/147,H04Q2213/13209,H04Q2213/1332,H04N7/15,H04N5/45,H04Q2213/13176,H04Q2213/13034,H04Q11/0471,H04N1/1004,G06T1/20,H04N7/141",utility,Picture codec and teleconference terminal equipment,"HITACHI, LTD.",fl:yo_ln:shibata-19,Yoji,Shibata,[],220292d4-16c8-11ed-9b5f-1234bde3cd05,"4831455,D308222,3970792,5130817,4916550,4589713,4562988,5206721,4961211,4924311,4650929,5247330,4244649,4965819,4887158,4953159,D342272,D323819,4054908,4645872,4415136,5396269,D327672,4834329,4741025,4238773,5111498,5396269,D327672,4834329,4741025,4238773,5111498",1995-07-31,0-0-0
5689450,1997-11-18,1995-08-28,JP,139.63678,35.444996,"G06F15/8015,G06T1/20",utility,Parallel processor,SONY CORPORATION,fl:ma_ln:kurokawa-17,Masuyoshi,Kurokawa,[],1d2251c8-16c8-11ed-9b5f-1234bde3cd05,"5235536,5268856,4694416,4872133,4712175,4720780",1995-08-28,0-0-0
5692139,1997-11-25,1995-04-19,US,-122.083206,37.389389,"G06F9/3885,G06T1/20,G06F9/3824",utility,VLIW processing device including improved memory for avoiding collisions without an excessive number of ports,"North American Philips Corporation, Signetics Div.",fl:ge_ln:slavenburg-2,Gerrit A.,Slavenburg,[],a26e2a3b-16c8-11ed-9b5f-1234bde3cd05,"4833599,4920477,5276821,4435758,5204841,4943912,4689738,5081575,4930066,5057837,5222229,5021945,5307506,4809159,4809159",1995-04-19,0-0-0
5692162,1997-11-25,1995-05-15,JP,139.759445,35.682838,"G06T1/20,G09G2340/12,G06F3/14",utility,Video entertainment system adapter and image display method of a video entertainment system using a video entertainment system adapter,Kabushiki Kaisha Sega Enterprises,fl:te_ln:okawa-4,Tetsuya,Okawa,[],42f90495-16c8-11ed-9b5f-1234bde3cd05,"5357604,5412399,5471579",1995-05-15,0-0-0
5692210,1997-11-25,1996-11-18,JP,139.702789,35.530529,"G06F15/8023,G06T1/20",utility,Image processing apparatus having parallel processors for communicating and performing positional control over plural areas of image data in accordance with designated position instruction,Canon Kabushiki Kaisha,fl:yo_ln:mita-9,Yoshinobu,Mita,[],1c0a3d5a-16c8-11ed-9b5f-1234bde3cd05,"4773026,4107780,4851988,4648050,4697176,4622547,4622632,4809347,4773044,4908751,4739474,4985848,4985848",1996-11-18,0-0-0
5701444,1997-12-23,1995-03-24,GB,-0.45493,51.372719,G06T1/20,utility,Three-dimensional graphics subsystem with enhanced support for graphical user interface,"3D Labs Co., Ltd.",fl:da_ln:baldwin-12,David R.,Baldwin,[],0f578c59-16c8-11ed-9b5f-1234bde3cd05,"5392391,5394524,5371514",1995-03-24,0-0-0
5706478,1998-01-06,1994-11-14,US,-97.743698,30.271126,"G06F9/3877,G06T15/80,G06F9/383,G06T1/20,G06F9/3867,G06F9/3879",utility,Display list processor for operating in processor and coprocessor modes,"Cirrus Logic, Inc.",fl:th_ln:dye-2,Thomas A.,Dye,[],1811f8b9-16c8-11ed-9b5f-1234bde3cd05,5388841,1994-11-14,0-0-0
5710895,1998-01-20,1996-10-31,US,-122.989838,45.522896,G06T1/20,utility,Method and apparatus for capturing and compressing video data in real time,Intel Corporation,fl:ri_ln:gerber-4,Richard,Gerber,[],c23317c8-16c7-11ed-9b5f-1234bde3cd05,"5471577,4698770,5208745,5355450,5191645,5508940,5502503,5502503",1996-10-31,0-0-0
5715436,1998-02-03,1995-08-01,JP,135.40799,34.78616,G06T1/20,utility,"Image processing LSI circuit with image preprocessing, feature extraction and matching","MITSUBISHI HEAVY INDUSTRIES, LTD.",fl:hi_ln:kawai-15,Hiroyuki,Kawai,[],9df04e65-16c8-11ed-9b5f-1234bde3cd05,"5560029,5325189,4941182,5291189,4985848",1995-08-01,0-0-0
5715070,1998-02-03,1995-04-25,JP,139.63678,35.444996,"H04N2201/0082,H04N2201/0087,H04N1/32561,H04N1/32603,H04N1/00204,H04N1/32582,H04N1/32587,H04N1/32577,G06T1/20,H04N2201/0081,H04N2201/0086",utility,Freely configurable image processing apparatus,"RICOH COMPANY, LTD.",fl:ta_ln:tone-4,Takeharu,Tone,[],1d2251c8-16c8-11ed-9b5f-1234bde3cd05,"5175824,5363175,5604600,5262965,5469533",1995-04-25,0-0-0
5714985,1998-02-03,1994-09-13,JP,139.702789,35.530529,G06T1/20,utility,Image processing system capable of high-speed and high-resolution image synthesis,Canon Kabushiki Kaisha,fl:na_ln:kawamura-8,Naoto,Kawamura,[],1c0a3d5a-16c8-11ed-9b5f-1234bde3cd05,"4876651,4439760,4954969,4611347,3961324,4839826",1994-09-13,0-0-0
5717440,1998-02-10,1994-12-06,JP,140.530838,36.537304,"G09G5/393,G09G5/024,G06T11/203,G09G5/399,G06T1/20",utility,Graphic processing having apparatus for outputting FIFO vacant information,"HITACHI, LTD.",fl:ko_ln:katsura-2,Koyo,Katsura,[],a05c4099-16c8-11ed-9b5f-1234bde3cd05,"4677573,4773026,5226119,4759014,4710922,4717914,4065862,4716527,4737951,4528636,4814756,5046023,4862480,4475161,4542376,4533910,4663735,4564915,4663735,4564915",1994-12-06,0-0-0
5719809,1998-02-17,1996-08-09,JP,139.63678,35.444996,"G06F7/575,G09G2340/10,G09G5/393,G06T1/60,G06T1/20",utility,Memory device,"HITACHI, LTD.",fl:ko_ln:kimura-27,Koichi,Kimura,[],1d2251c8-16c8-11ed-9b5f-1234bde3cd05,"4729119,4231185,5424981,4742474,4660181,4653020,5493536,4570222,4317114,5523973,4578773,4467443,5175838,3546680,4719601,4641282,4531120,5134589,4080651,3787817,4613852,4561072,4672534,4450442,4439829,4435792,3984670,3976982,4302809,4616336,4237543,4484187,5193073,4685089,4095268,4099231,4639768,5089993,4438493,4903236,4545068,4093993,4164787,4559533,3665419,5396468,4550315,4868781,4545068,4093993,4164787,4559533,3665419,5396468,4550315,4868781",1996-08-09,0-0-0
5727190,1998-03-10,1995-10-02,US,-79.990082,40.441696,"G06T1/20,G09G5/393,G09G5/42",utility,Method and system for the acceleration of graphics images in a multiprocessor or preemptive processing computer system,Apple Computer Inc.,fl:he_ln:derby-1,Herbert G.,Derby,[],696f80f0-16c8-11ed-9b5f-1234bde3cd05,"5127098,5623692,5307449,5249264,5307449,5249264",1995-10-02,0-0-0
5727192,1998-03-10,1996-05-01,GB,-0.329369,51.295506,"G09G5/363,G09G3/003,G06T1/20,G06F3/14,G06T15/04,G09G5/393",utility,Serial rendering system with auto-synchronization on frame blanking,"3D Labs Co., Ltd.",fl:da_ln:baldwin-12,David R.,Baldwin,[],be615420-16c7-11ed-9b5f-1234bde3cd05,"5392391,5543824",1996-05-01,0-0-0
5729706,1998-03-17,1993-11-29,JP,135.40799,34.78616,G06T1/20,utility,Microcomputer with improved data processing and data transfer capabilities,"MITSUBISHI HEAVY INDUSTRIES, LTD.",fl:hi_ln:terane-1,Hideyuki,Terane,[],9df04e65-16c8-11ed-9b5f-1234bde3cd05,"4821174,5237667,5007012,4866604,4528625,5204962,5179734",1993-11-29,0-0-0
5732164,1998-03-24,1994-11-16,JP,139.702789,35.530529,"G06T1/20,H04N5/10,H04N11/14,H04N5/14",utility,Parallel video processor apparatus,FUJITSU LIMITED,fl:na_ln:kawaguchi-7,Naohisa,Kawaguchi,[],1c0a3d5a-16c8-11ed-9b5f-1234bde3cd05,"4939575,4363104,4942593,4783832,4539593,5129092,5058158,4149178,5264931,5157742,5157742",1994-11-16,0-0-0
5732248,1998-03-24,1996-03-08,US,-105.008591,40.703869,"G09G2360/121,G09G5/393,G06T1/20",utility,Multistep vector generation for multiple frame buffer controllers,Hewlett-Packard Company,fl:br_ln:prouty-1,Bryan G.,Prouty,[],d2071d62-16c7-11ed-9b5f-1234bde3cd05,"5222204,5321805,5278949",1996-03-08,0-0-0
